Accepted_Name,In_Malarial_Region,Common_Name,Poisonous,Medicinal,Wiki_Page,Antimalarial_Use,Emergence,Tested_for_Alkaloids,herb,liana,succulent,shrub,subshrub,tree,bio1,bio4,bio10,bio11,bio12,bio15,bio16,bio17,brkl_elevation,elevation,slope,soil_nitrogen,soil_ph,soil_depth,soil_ocs,soil_water_cap,latitude,longitude,Family,Genus,kg_mode,Activity_Antimalarial,selected,P(s|x),weight
Acokanthera schimperi,1.0,1.0,1.0,1.0,1.0,1.0,1.0,0.0,0.0,0.0,0.0,1.0,0.0,0.0,18.9517498016357,101.771499633789,20.0112495422363,17.9957504272461,938.265747070312,68.1747512817383,414.060760498047,52.3105010986328,1626.70642089844,1658.35998535156,3.10382604598999,212.97917175293,66.7142868041992,8084.0,56.0,26.0625,8.466667,38.416667,Apocynaceae,Acokanthera,3.0,1.0,1,0.8589924673332603,1.1641545625009928
Adenium obesum,1.0,1.0,1.0,1.0,1.0,0.0,1.0,0.0,0.0,0.0,1.0,0.0,0.0,0.0,26.5637493133545,193.684494018555,28.8872509002686,24.5340003967285,550.2822265625,103.357749938965,358.447235107422,7.11250019073486,219.290863037109,209.050003051758,0.536609351634979,109.928573608398,65.6666641235352,11337.75,26.4375,17.1875,12.476067,2.916667,Apocynaceae,Adenium,4.0,0.0,1,0.14197467424947097,7.043509733594098
Alafia barteri,1.0,1.0,0.0,1.0,1.0,1.0,1.0,1.0,0.0,1.0,0.0,0.0,0.0,0.0,26.3635005950928,114.499496459961,27.8402500152588,24.8392505645752,1276.15502929688,64.1989974975586,555.440490722656,55.6662483215332,93.5207748413086,99.6524963378906,0.577280759811401,181.14582824707,57.976188659668,13298.5,38.25,16.6875,6.699874,2.549701,Apocynaceae,Alafia,3.0,1.0,1,0.5966968399015231,1.675892904284589
Alstonia angustifolia,1.0,0.0,1.0,1.0,1.0,0.0,1.0,1.0,0.0,0.0,0.0,0.0,0.0,1.0,26.1282501220703,36.0687484741211,26.6509990692139,25.6149997711182,3423.49438476562,26.6044998168945,1135.79272460938,614.807739257812,116.271469116211,83.0425033569336,1.56308138370514,288.229156494141,48.5555572509766,1489.25,59.8125,26.625,1.55,110.666667,Apocynaceae,Alstonia,1.0,0.0,1,0.2743879633308257,3.644474735192061
Alstonia angustiloba,1.0,1.0,0.0,1.0,1.0,0.0,1.0,1.0,0.0,0.0,0.0,0.0,0.0,1.0,25.5362491607666,37.8397483825684,25.9937496185303,25.0849990844727,3765.73828125,22.20975017547605,1297.95587158203,685.658874511719,188.9986190795895,204.838752746582,2.95286822319031,304.65327453613304,49.53125,1274.375,65.4772720336914,26.78125,-0.379861,108.367933,Apocynaceae,Alstonia,1.0,1.0,1,0.10176745531273083,9.826324112428727
Alstonia boonei,1.0,1.0,1.0,1.0,1.0,1.0,1.0,1.0,0.0,0.0,0.0,0.0,0.0,1.0,24.9519996643066,90.4670028686523,26.2913751602173,23.907000541687,1717.98278808594,54.8662490844727,658.5975036621095,106.265502929688,306.468139648438,286.100006103516,0.826576590538025,214.84375,52.6145820617676,10045.5,45.0625,18.8125,5.344868,4.496928499999999,Apocynaceae,Alstonia,3.0,0.0,1,0.9185120523526319,1.0887173417470668
Alstonia congensis,1.0,1.0,1.0,1.0,1.0,1.0,1.0,1.0,0.0,0.0,0.0,0.0,0.0,1.0,26.5452499389648,107.896003723145,27.8168754577637,24.960750579834,1273.98162841797,65.5865020751953,586.191528320312,55.6662483215332,53.9695281982422,53.9150009155273,0.508841872215271,181.14582824707,56.625,13921.375,44.0,19.6875,6.640926,2.6272015,Apocynaceae,Alstonia,3.0,1.0,1,0.9272387581075349,1.0784708806186754
Alstonia macrophylla,1.0,1.0,1.0,1.0,1.0,0.0,1.0,1.0,0.0,0.0,0.0,0.0,0.0,1.0,23.3928747177124,53.91187477111815,24.6190004348755,22.21150016784665,2789.1220703125,27.1217498779297,976.6458740234376,460.86262512207,812.722991943359,591.113739013672,4.73629903793335,350.949996948242,53.0625,1263.375,71.1875,27.53125,-4.425000000000001,141.13150000000002,Apocynaceae,Alstonia,1.0,1.0,1,0.23935161192041526,4.177953897935316
Alstonia scholaris,1.0,1.0,1.0,1.0,1.0,1.0,1.0,1.0,0.0,0.0,0.0,0.0,0.0,1.0,23.6737499237061,209.2236251831055,26.3217496871948,20.5182495117188,2051.37280273438,77.4207534790039,1065.42346191406,104.800003051758,178.9958419799805,177.9762496948245,1.76826405525208,219.5,55.2083339691162,2335.25,56.0625,24.25,-2.761725,119.900162,Apocynaceae,Alstonia,3.0,0.0,1,0.8099410426344943,1.234657768110258
Alstonia spectabilis,1.0,1.0,1.0,1.0,1.0,1.0,1.0,1.0,0.0,0.0,0.0,0.0,0.0,1.0,26.8262500762939,201.662750244141,28.9615001678467,23.4162502288818,1387.74523925781,111.338752746582,851.25927734375,6.48299980163574,127.839332580566,134.565002441406,1.32702171802521,112.541664123535,63.625,2478.75,29.36666679382325,17.375,-14.68481,130.56561,Apocynaceae,Alstonia,3.0,1.0,1,0.8727508321506582,1.145802402199687
Alyxia stellata,1.0,1.0,0.0,1.0,1.0,0.0,0.0,1.0,0.0,0.0,0.0,0.0,0.0,1.0,23.7287502288818,113.81600189209,25.52312564849855,21.7600002288818,2081.89282226562,40.6295013427734,764.090515136719,290.8428649902345,58.9238224029541,57.4199981689453,1.8518226146698,391.0,55.5,2246.5,69.0,27.625,-16.046586,-151.4,Apocynaceae,Alyxia,1.0,0.0,1,0.03285851056786982,30.43351578381749
Amphineurion marginatum,1.0,0.0,0.0,1.0,1.0,1.0,0.0,1.0,0.0,1.0,0.0,0.0,0.0,0.0,26.5761241912842,120.814750671387,27.8576250076294,24.8417491912842,1827.46130371094,77.4886245727539,861.560485839844,50.9689998626709,137.66204833984352,122.65749740600548,1.643851339817045,203.037033081055,56.9375,5554.0,53.15625,23.6875,12.6217835,101.5968335,Apocynaceae,Amphineurion,3.0,0.0,1,0.48505078893418,2.0616397763156655
Apteranthes tuberculata,1.0,1.0,1.0,1.0,0.0,0.0,0.0,0.0,0.0,0.0,1.0,0.0,0.0,0.0,,,,,,,,,,,,,,,,,,,Apocynaceae,Apteranthes,,0.0,1,0.040444050139606925,24.72551578163282
Aspidosperma cylindrocarpon,1.0,0.0,0.0,0.0,1.0,0.0,1.0,1.0,0.0,0.0,0.0,0.0,0.0,1.0,22.2924995422363,170.675750732422,24.1494998931885,19.8832492828369,1450.72448730469,62.5807495117188,673.608520507812,103.638000488281,610.470886230469,637.6875,1.32085800170898,169.933334350586,53.8222236633301,1785.25,48.9333343505859,21.1875,-17.33861,-57.3656,Apocynaceae,Aspidosperma,3.0,0.0,1,0.25730528909303957,3.8864339070714085
Aspidosperma desmanthum,1.0,0.0,0.0,1.0,1.0,1.0,1.0,1.0,0.0,0.0,0.0,0.0,0.0,1.0,25.2455005645752,56.1785011291504,25.9095001220703,24.2447490692139,3037.94116210938,46.2159996032715,1093.77294921875,283.858764648438,183.083099365234,169.054992675781,0.889556109905243,251.622222900391,49.523811340332,2687.0,55.5357151031494,23.5,3.09,-73.24722,Apocynaceae,Aspidosperma,1.0,1.0,1,0.7918863724423342,1.26280743652123
Aspidosperma excelsum,1.0,1.0,0.0,1.0,1.0,1.0,1.0,1.0,0.0,0.0,0.0,0.0,0.0,1.0,25.2792491912842,57.0398750305176,25.868249893188448,24.4207496643066,2766.53784179688,44.21262359619145,1065.9193725585951,290.6566314697265,174.7686996459965,168.470001220703,0.505838453769684,216.08332824707,47.0625,2453.91662597656,51.1875,22.3125,0.9375,-68.183335,Apocynaceae,Aspidosperma,1.0,1.0,1,0.6831773601885035,1.4637487397475792
Aspidosperma macrocarpon,1.0,0.0,0.0,0.0,1.0,0.0,1.0,1.0,0.0,0.0,0.0,0.0,0.0,1.0,24.1065006256104,109.222999572754,25.44587516784665,22.5602502822876,1536.43634033203,78.61312484741211,753.116516113281,28.3257503509521,605.583099365234,629.302490234375,1.25608861446381,148.59375,53.3854160308838,2717.25,44.6875,19.5625,-14.558195,-48.03472,Apocynaceae,Aspidosperma,3.0,1.0,1,0.28078722720786237,3.5614155599026436
Aspidosperma megalocarpon,1.0,1.0,0.0,1.0,1.0,1.0,1.0,1.0,0.0,0.0,0.0,0.0,0.0,1.0,24.9932498931885,161.814254760742,26.6277503967285,23.0712509155273,2365.39916992188,62.3847503662109,1057.87353515625,166.057754516602,246.728530883789,267.0625,2.65494275093079,302.333343505859,57.2564086914062,578.25,61.0,26.375,16.3333,-90.9646,Apocynaceae,Aspidosperma,2.0,1.0,1,0.6418343291393874,1.5580344562449067
Aspidosperma nigricans,1.0,0.0,1.0,0.0,0.0,0.0,1.0,1.0,0.0,0.0,0.0,0.0,0.0,1.0,24.3490009307861,140.125,25.8684997558594,22.3462505340576,1034.46569824219,41.5475006103516,532.450744628906,99.5222473144531,262.232696533203,338.105010986328,1.59222435951233,215.1875,60.8125,2457.0,40.125,18.125,-12.16167,-39.12028,Apocynaceae,Aspidosperma,3.0,0.0,1,0.30916170257195347,3.2345532828965537
Aspidosperma oblongum,1.0,0.0,0.0,1.0,0.0,1.0,1.0,1.0,0.0,0.0,0.0,0.0,0.0,1.0,25.4584999084473,63.1002502441406,26.4317493438721,24.8587493896484,2564.52099609375,48.6875,1020.47052001953,225.838500976562,146.922439575195,144.550003051758,1.05629062652588,246.375,46.0416679382324,3222.5,51.6875,23.0,4.05,-53.36583,Apocynaceae,Aspidosperma,1.0,1.0,1,0.5934078640339616,1.685181576802913
Aspidosperma olivaceum,1.0,0.0,0.0,0.0,1.0,0.0,1.0,1.0,0.0,0.0,0.0,0.0,0.0,1.0,19.6644992828369,214.498992919922,22.2232494354248,16.7285003662109,1748.11376953125,61.1052513122559,826.724487304688,135.333999633789,790.005554199219,822.60498046875,2.47742080688477,244.27082824707,51.26825332641605,1844.75,59.024999618530245,22.875,-22.70558,-46.25,Apocynaceae,Aspidosperma,14.0,1.0,1,0.14065167468540943,7.109762484070412
Aspidosperma parvifolium,1.0,1.0,1.0,1.0,1.0,1.0,1.0,1.0,0.0,0.0,0.0,0.0,0.0,1.0,24.2679996490479,131.226257324219,25.5860004425049,22.3457508087158,1516.48352050781,58.3255004882812,631.840759277344,113.924247741699,337.15234375,349.290008544922,1.43789541721344,198.52082824707,53.7916679382324,2512.75,48.0,21.4375,-12.76667,-47.74783,Apocynaceae,Aspidosperma,3.0,1.0,1,0.9190054247633208,1.088132858690729
Aspidosperma polyneuron,1.0,1.0,1.0,1.0,1.0,1.0,1.0,1.0,0.0,0.0,0.0,0.0,0.0,1.0,24.6089992523193,81.0502471923828,26.0282497406006,23.1095008850098,1442.99829101562,57.6074981689453,632.078735351562,111.057502746582,462.274230957031,393.882507324219,1.91260087490082,202.255950927734,56.230770111084,2756.75,49.6666679382324,24.8125,4.282571,-72.54048,Apocynaceae,Aspidosperma,3.0,1.0,1,0.9055943300146219,1.104247196406203
Aspidosperma pyrifolium,1.0,1.0,1.0,1.0,1.0,0.0,1.0,1.0,0.0,0.0,0.0,0.0,0.0,1.0,25.9837503433228,150.4082489013675,27.608624458313,23.87312507629395,666.3447265625,85.25074768066405,352.79150390625,21.1979999542236,409.437683105469,421.202514648438,0.933906435966492,112.645835876465,62.8333320617676,2457.0,28.375,17.0,-9.1148775,-39.46861,Apocynaceae,Aspidosperma,6.0,0.0,1,0.5087733619607533,1.9655117086832463
Aspidosperma quebracho-blanco,1.0,1.0,1.0,1.0,1.0,1.0,1.0,1.0,0.0,0.0,0.0,0.0,0.0,1.0,19.3425006866455,409.729736328125,24.9722499847412,13.763500213623,980.882019042969,71.6470031738281,430.070739746094,44.5032501220703,267.709136962891,274.197509765625,0.326141595840454,146.79167175293,65.7708358764648,2967.0,43.6875,20.625,-26.46,-62.88663,Apocynaceae,Aspidosperma,6.0,1.0,1,0.9106244757522376,1.0981475093494848
Aspidosperma ramiflorum,1.0,0.0,0.0,1.0,1.0,0.0,1.0,1.0,0.0,0.0,0.0,0.0,0.0,1.0,21.3062496185303,219.333999633789,23.6679992675781,18.17987537384035,1512.9814453125,60.1985015869141,690.9309997558595,130.027626037598,595.520751953125,634.9324951171875,1.48580610752106,202.928573608398,53.1025657653809,1268.625,49.9230766296387,21.1875,-22.808335,-47.251715,Apocynaceae,Aspidosperma,14.0,1.0,1,0.30314685680278874,3.2987312174262353
Aspidosperma rigidum,1.0,1.0,0.0,1.0,0.0,1.0,1.0,1.0,0.0,0.0,0.0,0.0,0.0,1.0,24.2077503204346,91.3130035400391,25.1725006103516,22.5427494049072,1931.51770019531,47.6732482910156,817.443237304688,180.035751342773,363.204986572266,325.697509765625,2.13952898979187,255.952377319336,53.0,2085.25,57.4375,23.4375,-11.71666,-69.05,Apocynaceae,Aspidosperma,1.0,1.0,1,0.501183463205271,1.9952773254021503
Aspidosperma spruceanum,1.0,1.0,0.0,1.0,1.0,1.0,1.0,1.0,0.0,0.0,0.0,0.0,0.0,1.0,25.191499710083,81.9612503051758,26.1224994659424,24.3472499847412,2200.048828125,49.3847503662109,915.513732910156,212.039505004883,217.85595703125,217.520004272461,0.75976949930191,199.190475463867,49.2916679382324,2593.25,48.75,21.9375,-3.75,-59.75,Apocynaceae,Aspidosperma,1.0,1.0,1,0.6964329754846164,1.4358883556657336
Aspidosperma subincanum,1.0,1.0,1.0,1.0,1.0,1.0,1.0,1.0,0.0,0.0,0.0,0.0,0.0,1.0,24.1137504577637,120.684501647949,25.77174949646,21.9855003356934,1435.302734375,81.4789962768555,734.805725097656,28.7859992980957,505.695281982422,515.227478027344,1.38632798194885,147.41667175293,54.6666679382324,2588.5,46.4375,19.8125,-15.56,-48.12389,Apocynaceae,Aspidosperma,3.0,1.0,1,0.9008584520667123,1.110052303673059
Aspidosperma tomentosum,1.0,0.0,1.0,1.0,1.0,1.0,1.0,1.0,0.0,0.0,0.0,0.0,0.0,1.0,23.35712432861325,136.337501525879,24.7252492904663,20.9754991531372,1472.25402832031,81.333251953125,734.676239013672,31.99749946594235,682.939086914063,666.739990234375,1.437387108802795,149.77082824707,54.3020839691162,2689.75,46.6448860168457,20.125,-16.471715,-47.93,Apocynaceae,Aspidosperma,3.0,1.0,1,0.9348799532365091,1.0696560521359437
Aspidosperma ulei,1.0,0.0,0.0,1.0,1.0,1.0,1.0,1.0,0.0,0.0,0.0,0.0,0.0,1.0,25.1035003662109,64.4560012817383,25.9354991912842,24.3212509155273,2162.22143554688,68.7617492675781,1044.87805175781,152.918502807617,311.476440429688,273.777496337891,1.1899002790451,162.95832824707,48.5,2408.75,47.1875,18.75,2.45,-59.1,Apocynaceae,Aspidosperma,2.0,0.0,1,0.6650703210562597,1.5036003988447528
Callichilia barteri,1.0,0.0,1.0,1.0,1.0,0.0,0.0,1.0,0.0,0.0,0.0,1.0,1.0,0.0,26.5452499389648,119.5432510375975,27.9965000152588,24.960750579834,1251.31604003906,67.7314987182617,573.587615966797,52.603376388549805,93.5207748413086,99.26124954223636,0.572783470153809,164.29167175293,59.3020820617676,13515.5,35.769229888916,16.5,6.797893,2.587329,Apocynaceae,Callichilia,3.0,1.0,1,0.8245213572792871,1.212824860352615
Calotropis gigantea,1.0,1.0,1.0,1.0,1.0,1.0,0.0,1.0,0.0,0.0,0.0,1.0,0.0,0.0,26.2032508850098,193.466995239258,28.1590003967285,22.8577499389648,1153.24645996094,84.5287475585938,616.039489746094,37.1152496337891,171.878112792969,172.300003051758,0.555307626724243,157.47917175293,64.2424240112305,4951.041748046875,43.2857131958008,23.90625,12.91964,78.18116,Apocynaceae,Calotropis,3.0,1.0,1,0.9993770777075996,1.0006233105664473
Calotropis procera,1.0,1.0,1.0,1.0,1.0,1.0,0.0,0.0,0.0,0.0,0.0,1.0,0.0,0.0,26.607250213623,279.9267578125,30.036750793457,22.2644996643066,748.212768554688,112.40950012207,462.114501953125,5.81624984741211,204.027694702148,204.199996948242,0.411471664905548,74.0625,68.1458358764648,3282.25,25.1875,17.625,-14.103185,77.796505,Apocynaceae,Calotropis,3.0,1.0,1,0.9966018088033061,1.0034097782752114
Carissa spinarum,1.0,1.0,1.0,1.0,1.0,1.0,1.0,1.0,0.0,0.0,0.0,1.0,0.0,0.0,26.0837497711182,338.196258544922,28.9925003051758,20.6027498245239,799.3443603515625,105.034122467041,484.1503753662105,12.3684997558594,237.883651733398,234.9024963378905,0.623880624771118,84.9375,65.8958358764648,2484.25,29.125,18.8125,-17.476955,132.93065,Apocynaceae,Carissa,6.0,1.0,1,0.8405646763037159,1.1896764498805519
Cascabela thevetia,1.0,1.0,1.0,1.0,1.0,1.0,0.0,1.0,0.0,0.0,0.0,1.0,0.0,0.0,23.3780002593994,191.908493041992,26.1557502746582,20.5900001525879,1286.43725585938,72.5374984741211,611.306274414062,79.0947494506836,193.060943603516,209.089996337891,1.34598636627197,247.589736938477,63.4444427490234,2085.5,55.3125,25.4375,17.9333,-75.69203,Apocynaceae,Cascabela,3.0,0.0,1,0.8757817161064165,1.141837037253801
Catharanthus roseus,1.0,1.0,1.0,1.0,1.0,1.0,1.0,1.0,0.0,0.0,0.0,0.0,1.0,0.0,24.3705005645752,266.360748291016,27.2945003509521,19.9332504272461,1332.16723632812,72.8977508544922,656.445251464844,73.1657485961914,107.836563110352,115.900001525879,0.563755512237549,219.461112976074,62.6666679382324,2838.75,47.2000007629395,24.0625,18.90722,73.94205,Apocynaceae,Catharanthus,3.0,0.0,1,0.662861342014009,1.508611132701816
Caudanthera sinaica,1.0,0.0,0.0,0.0,0.0,0.0,0.0,0.0,0.0,0.0,1.0,0.0,0.0,0.0,23.1700000762939,571.827270507812,29.8239994049072,15.8144998550415,307.983489990234,109.969497680664,203.359756469727,1.1102499961853,-197.56787109375,-180.975006103516,2.57702469825745,95.7916641235352,78.5833358764648,4621.0,25.2000007629395,20.125,31.37,35.34,Apocynaceae,Caudanthera,4.0,0.0,1,0.03073514061283392,32.53604766598774
Chilocarpus costatus,1.0,0.0,0.0,0.0,0.0,0.0,0.0,0.0,0.0,0.0,0.0,1.0,0.0,0.0,26.06162548065189,40.47162437438965,26.866125106811506,25.27475070953365,2745.978515625,28.3543748855591,919.90625,430.8658752441405,121.858726501465,142.0499954223635,2.29717755317688,286.23957824707054,50.5625,1572.625,54.6875,25.375,4.208333,102.475,Apocynaceae,Chilocarpus,1.0,1.0,1,0.006213568594955603,160.93811224870612
Condylocarpon isthmicum,1.0,0.0,0.0,0.0,0.0,0.0,0.0,0.0,0.0,0.0,0.0,1.0,0.0,1.0,20.6180000305176,254.471755981445,23.3155002593994,17.0982494354248,1694.6465454101549,40.4627494812012,632.6348571777345,195.046493530273,674.459808349609,665.8175048828125,1.587427258491515,226.77082824707,52.9166679382324,1569.625,54.533332824707,23.0,-23.45,-49.076665,Apocynaceae,Condylocarpon,14.0,0.0,1,0.0173718139441134,57.56451244625835
Cryptolepis nigrescens,1.0,0.0,1.0,1.0,0.0,1.0,1.0,1.0,0.0,1.0,0.0,1.0,0.0,0.0,26.8055000305176,126.841499328613,28.4424991607666,25.1022491455078,1148.81274414062,62.4729995727539,467.811737060547,50.7227516174316,50.6315803527832,80.6524963378906,0.577280759811401,157.70832824707,62.2888870239258,14089.5,45.5,21.1875,6.969348,2.17162,Apocynaceae,Cryptolepis,3.0,0.0,1,0.8349495951053847,1.1976770883681704
Cryptolepis sanguinolenta,1.0,1.0,1.0,1.0,1.0,1.0,1.0,1.0,0.0,1.0,0.0,1.0,0.0,0.0,26.5258750915527,121.888496398926,28.05300045013425,24.85599994659425,1270.38739013672,75.6992492675781,703.021118164063,19.3237495422363,109.9972305297855,147.080001831055,0.440247789025307,159.77082824707,55.25,13438.75,42.75,19.8125,7.6739165,-3.658165,Apocynaceae,Cryptolepis,3.0,1.0,1,0.843185386406861,1.1859788086003087
Desmidorchis penicillata,1.0,1.0,1.0,1.0,0.0,0.0,1.0,0.0,0.0,0.0,1.0,0.0,0.0,0.0,23.4537506103516,411.1875,28.449749946594203,17.263500213623,206.6010055541995,69.7672500610352,102.16412353515628,13.364125251770052,973.542938232422,1024.16003417969,3.42787313461304,101.41666793823252,81.2604141235352,4141.0,20.5,18.875,16.7675,39.25,Apocynaceae,Desmidorchis,4.0,1.0,1,0.1040521639654034,9.610564181370536
Desmidorchis retrospiciens,1.0,0.0,1.0,1.0,0.0,0.0,1.0,0.0,0.0,0.0,1.0,0.0,0.0,0.0,27.2514991760254,353.372741699219,31.4615001678467,23.7495002746582,276.917236328125,88.2717514038086,191.143493652344,13.2954998016357,500.695281982422,504.677490234375,1.48576259613037,110.686698913574,77.93055725097655,6093.5,19.8125,21.09375,11.75,39.95,Apocynaceae,Desmidorchis,4.0,0.0,1,0.13459484368196206,7.429705125724787
Diplorhynchus condylocarpon,1.0,1.0,1.0,1.0,1.0,1.0,1.0,1.0,0.0,0.0,0.0,0.0,0.0,1.0,22.2657508850098,210.945251464844,24.5502490997314,18.6485004425049,986.609985351562,93.7337493896484,552.8759765625,13.6529998779297,923.193908691406,914.58251953125,1.80625402927399,110.0,59.71875,5632.5,36.375,16.6875,-14.06667,32.5,Apocynaceae,Diplorhynchus,3.0,0.0,1,0.6219694028550785,1.6077961317865732
Dyera costulata,1.0,1.0,1.0,1.0,1.0,0.0,0.0,1.0,0.0,0.0,0.0,0.0,0.0,1.0,26.1127490997314,36.0687484741211,26.5137500762939,25.6307506561279,2984.3740234375,20.5044994354248,936.664001464844,541.588745117188,93.3019409179688,111.757499694824,1.50004482269287,280.5,49.125,1350.0,56.6153831481934,26.75,1.4,104.75,Apocynaceae,Dyera,1.0,1.0,1,0.8291695242049444,1.206025994453737
Funtumia africana,1.0,1.0,1.0,1.0,1.0,1.0,1.0,1.0,0.0,0.0,0.0,0.0,0.0,1.0,23.9804992675781,102.008247375488,25.3159999847412,22.929500579834,1964.2001953125,65.6437530517578,857.600219726562,66.2454986572266,472.185607910156,449.297485351562,1.460369348526,246.23957824707,52.4375,8140.75,55.65625,23.5625,5.4,2.608439,Apocynaceae,Funtumia,2.0,1.0,1,0.9996309617202405,1.000369174519289
Funtumia elastica,1.0,1.0,1.0,1.0,1.0,1.0,1.0,1.0,0.0,0.0,0.0,0.0,0.0,1.0,25.0820007324219,88.7675018310547,26.0852508544922,23.92025089263916,1644.19549560547,56.67912483215335,644.8896484375,92.4802474975586,227.21052551269548,222.154998779297,0.741553485393524,203.052085876465,53.30138969421385,9829.0,46.875,20.5625,4.9346665000000005,9.33333,Apocynaceae,Funtumia,3.0,1.0,1,0.9998212901377188,1.0001787418052046
Geissospermum argenteum,1.0,1.0,0.0,1.0,0.0,1.0,0.0,1.0,0.0,0.0,0.0,0.0,0.0,1.0,25.8707504272461,67.2789993286133,26.8362503051758,25.2070007324219,2336.51123046875,50.8344993591309,998.126770019531,223.525253295898,157.274230957031,159.740005493164,0.604351401329041,183.41667175293,45.8125,2850.25,47.625,22.3125,1.65,-56.84144,Apocynaceae,Geissospermum,1.0,1.0,1,0.9828512593225515,1.0174479510656258
Geissospermum laeve,1.0,1.0,1.0,1.0,1.0,1.0,0.0,1.0,0.0,0.0,0.0,0.0,0.0,1.0,24.9977493286133,84.5315017700195,26.2802505493164,24.3472499847412,2115.49975585938,51.3787498474121,844.484008789062,189.84375,131.875350952148,125.367500305176,0.964578866958618,244.27082824707,48.5555572509766,3040.5,50.4375,22.125,-3.92,-52.18,Apocynaceae,Geissospermum,1.0,1.0,1,0.9971320166105708,1.002876232376108
Geissospermum sericeum,1.0,1.0,1.0,1.0,1.0,1.0,0.0,1.0,0.0,0.0,0.0,0.0,0.0,1.0,25.9487495422363,70.3122482299805,26.8362503051758,25.2119998931885,2399.66796875,54.9210014343262,1053.40295410156,212.039505004883,107.595565795898,127.004997253418,0.708850264549255,200.85417175293,46.1041679382324,3040.5,48.1111106872559,22.5625,-1.32249,-54.19167,Apocynaceae,Geissospermum,2.0,1.0,1,0.9969652519264821,1.0030439858035711
Gomphocarpus fruticosus,1.0,1.0,1.0,1.0,1.0,0.0,1.0,0.0,0.0,0.0,0.0,1.0,0.0,0.0,17.0552501678467,417.266998291016,22.1900005340576,11.2132501602173,804.244750976562,27.9997501373291,276.619750976562,129.892242431641,200.174514770508,220.477493286133,1.70133590698242,211.77082824707,60.7083320617676,1772.0,49.0,20.25,-32.12853,150.848,Apocynaceae,Gomphocarpus,14.0,0.0,1,0.07655724372884705,13.062121248014527
Gomphocarpus semilunatus,1.0,0.0,1.0,1.0,0.0,1.0,1.0,0.0,0.0,0.0,0.0,1.0,0.0,0.0,20.6735000610352,55.6447486877441,21.4650001525879,19.7472496032715,1413.76977539062,44.5724983215332,511.109008789062,135.893249511719,1428.24096679688,1389.10498046875,1.19506931304932,229.79167175293,55.7916679382324,5172.0,63.1875,25.0625,-0.683333,31.54111,Apocynaceae,Gomphocarpus,3.0,0.0,1,0.4356387291108601,2.295480023185732
Gongronema napalense,1.0,0.0,0.0,1.0,0.0,0.0,0.0,0.0,0.0,1.0,0.0,0.0,0.0,0.0,13.4392499923706,422.631500244141,18.2024993896484,7.47275018692017,1644.23352050781,66.1269989013672,780.908264160156,95.6597518920898,2232.23828125,2164.51000976562,13.4183073043823,500.333343505859,56.5833320617676,1713.75,70.375,25.375,25.28861,98.8125,Apocynaceae,Gongronema,12.0,0.0,1,0.009730108099025222,102.77378111556455
Gonioma malagasy,1.0,0.0,0.0,0.0,0.0,0.0,0.0,1.0,0.0,0.0,0.0,1.0,0.0,0.0,22.5067501068115,245.599746704102,24.9247493743896,18.7355003356934,756.639526367188,104.817749023438,499.070251464844,12.6990003585815,590.562316894531,580.212524414062,1.90856778621674,106.6875,65.875,3655.75,42.625,15.75,-22.8,44.53333,Apocynaceae,Gonioma,6.0,0.0,1,0.4778609694243609,2.09265887775814
Gymnema inodorum,1.0,0.0,0.0,1.0,1.0,0.0,1.0,0.0,0.0,1.0,0.0,0.0,0.0,0.0,20.7407493591309,361.123504638672,24.1727504730225,14.8767499923706,1824.24072265625,75.239501953125,966.789489746094,75.9727478027344,928.84765625,852.402526855469,4.83294773101807,257.75,56.25,1379.5,57.5625,25.375,22.79219,105.3347,Apocynaceae,Gymnema,11.0,1.0,1,0.005518821462685285,181.1981066539941
Gymnema sylvestre,1.0,1.0,1.0,1.0,1.0,0.0,1.0,1.0,0.0,1.0,0.0,0.0,0.0,0.0,23.269000053405748,283.10986328125,27.6512508392334,18.9717502593994,1314.22076416016,73.91374969482425,695.2330017089845,55.7437515258789,203.2963943481445,181.9362487792965,0.831028461456299,165.048614501953,59.6666679382324,2934.25,45.5,21.625,12.21512,46.124995,Apocynaceae,Gymnema,3.0,0.0,1,0.11019785993916852,9.074586389899228
Hancornia speciosa,1.0,1.0,0.0,1.0,1.0,0.0,0.0,1.0,0.0,0.0,0.0,0.0,0.0,1.0,24.9745006561279,109.379249572754,26.29075050354,23.2032508850098,1492.18701171875,76.6427536010742,722.907470703125,37.2270011901855,411.113586425781,405.429992675781,1.05318260192871,149.91667175293,53.84930610656736,3050.25,44.6875,18.9375,-13.33333,-46.54722,Apocynaceae,Hancornia,3.0,0.0,1,0.07330811521516746,13.64105456899129
Hemidesmus indicus,1.0,1.0,1.0,1.0,1.0,0.0,0.0,1.0,0.0,1.0,0.0,0.0,0.0,0.0,26.3775005340576,188.647506713867,28.1229991912842,23.4909992218018,1689.47619628906,96.702751159668,926.257019042969,23.7952499389648,192.196670532227,137.884994506836,0.862852692604065,222.4375,62.1875,5358.75,52.8125,25.25,13.17098,76.92609,Apocynaceae,Hemidesmus,3.0,0.0,1,0.13186633015451707,7.583436945793741
Himatanthus articulatus,1.0,1.0,0.0,1.0,1.0,1.0,0.0,1.0,0.0,0.0,0.0,1.0,0.0,0.0,25.5294990539551,73.2699966430664,26.5160007476807,24.5377502441406,2399.66796875,54.3612518310547,1021.46374511719,184.803253173828,204.360107421875,201.352493286133,0.505838453769684,193.380950927734,49.9555549621582,2961.5,48.75,22.0625,2.42,-66.03,Apocynaceae,Himatanthus,2.0,0.0,1,0.8428777865943168,1.186411619697017
Himatanthus obovatus,1.0,0.0,1.0,0.0,1.0,0.0,0.0,0.0,0.0,0.0,0.0,1.0,0.0,0.0,24.8917503356934,115.66774749755852,26.28412532806395,23.21562480926515,1492.520751953125,78.5252532958984,746.211975097656,30.1582498550415,445.1717376708985,465.410003662109,1.08648562431335,147.427085876465,54.3055572509766,2697.125,43.625,18.6875,-14.14,-48.047225,Apocynaceae,Himatanthus,3.0,0.0,1,0.18129928411999877,5.5157415808554315
Holarrhena pubescens,1.0,1.0,1.0,1.0,1.0,1.0,1.0,1.0,0.0,0.0,0.0,0.0,0.0,1.0,24.105375289917,186.7096252441405,26.3912506103516,21.290875434875502,1196.38427734375,91.36287307739256,678.051025390625,22.7882499694824,515.1578979492185,486.644989013672,1.67018055915833,140.5625,58.875,6691.25,43.6666679382324,21.03125,-4.7118125,39.08058,Apocynaceae,Holarrhena,3.0,1.0,1,0.9096374169618809,1.099339122768194
Hunteria umbellata,1.0,1.0,1.0,1.0,1.0,1.0,0.0,1.0,0.0,0.0,0.0,0.0,0.0,1.0,25.6595001220703,102.266998291016,26.9357490539551,24.3417491912842,1728.70471191406,65.7217483520508,734.174011230469,80.2154998779297,96.7396087646484,100.17749786377,0.543000459671021,199.71110534668,51.75,11980.75,43.8666648864746,18.9375,6.066667,2.449387,Apocynaceae,Hunteria,3.0,1.0,1,0.9434407625073136,1.0599499616090078
Hunteria zeylanica,1.0,1.0,1.0,1.0,1.0,0.0,0.0,1.0,0.0,0.0,0.0,0.0,0.0,1.0,25.7665004730225,129.949996948242,27.4409999847412,24.1825008392334,1308.33996582031,66.2962493896484,648.047485351562,85.3190002441406,130.354568481445,96.1975021362305,1.13593673706055,185.800003051758,56.8444442749023,5302.5,49.5,21.0625,3.216667,98.83333,Apocynaceae,Hunteria,3.0,1.0,1,0.4908808641082889,2.037154171443519
Kanahia laniflora,1.0,1.0,0.0,1.0,0.0,0.0,0.0,0.0,0.0,0.0,0.0,0.0,1.0,0.0,24.2045001983643,141.85250091552751,26.6077499389648,22.2006254196167,1097.38452148438,68.4759979248047,481.4393768310545,38.5587501525879,321.033233642578,356.8912506103515,0.905787825584412,135.09375,62.84375,8382.375,35.5625,19.28125,5.2666635,29.497395,Apocynaceae,Kanahia,3.0,0.0,1,0.3058260742135183,3.2698323796349387
Kopsia dasyrachis,1.0,0.0,0.0,0.0,1.0,0.0,0.0,1.0,0.0,0.0,0.0,0.0,0.0,1.0,24.695625305175803,43.360124588012695,25.21974945068355,24.0592498779297,2638.97192382812,14.210000038146951,790.2846069335935,539.9688720703125,329.164825439453,335.5237426757815,3.6414715051651,317.41667175292946,51.5104179382324,774.125,63.25,25.0,4.9933335,117.70835,Apocynaceae,Kopsia,1.0,1.0,1,0.04320291205446889,23.146587867485206
Kopsia fruticosa,1.0,1.0,0.0,1.0,1.0,1.0,0.0,1.0,0.0,0.0,0.0,0.0,0.0,1.0,26.72825050354,52.0859985351562,27.3727493286133,25.9927501678467,2491.28930664062,25.0445003509521,905.896484375,495.308746337891,18.4404430389404,38.8474998474121,0.64845860004425,248.533340454102,50.7916679382324,3378.0,57.375,27.0,1.404756,103.8065,Apocynaceae,Kopsia,1.0,1.0,1,0.4314041492220783,2.318012012177518
Lacmellea panamensis,1.0,0.0,0.0,0.0,1.0,0.0,0.0,0.0,0.0,0.0,0.0,1.0,0.0,1.0,25.2455005645752,49.743749618530245,26.01424980163575,24.67049980163575,3686.65380859375,52.6575012207031,1388.41320800781,259.762237548828,123.853187561035,142.3125,1.80965971946716,378.42707824707054,53.5416679382324,4450.75,59.0,27.0625,8.895694500000001,-83.37,Apocynaceae,Lacmellea,1.0,0.0,1,0.02317093647720627,43.157513335022976
Landolphia dulcis,1.0,0.0,0.0,1.0,1.0,0.0,1.0,0.0,0.0,1.0,0.0,0.0,0.0,0.0,25.68487548828125,101.950252532959,26.9712505340576,24.414375305175803,1756.07800292969,67.08987426757815,835.7598571777345,77.03625106811525,134.56925201416,132.254997253418,0.5719418823719025,207.466667175293,53.1666679382324,10894.375,45.1875,19.125,6.50375,-3.9566665,Apocynaceae,Landolphia,3.0,0.0,1,0.030898000084336907,32.36455425174683
Landolphia heudelotii,1.0,1.0,0.0,1.0,1.0,0.0,1.0,0.0,0.0,1.0,0.0,0.0,0.0,0.0,26.821624755859403,167.267631530762,28.9812507629395,25.2292499542236,1306.2041625976549,115.316997528076,866.991394042969,1.24800002574921,223.4058151245115,221.229995727539,0.4362170547246935,157.33332824707,57.3125,11947.125,37.5,19.75,11.292365,-12.30653,Apocynaceae,Landolphia,3.0,1.0,1,0.01635466028781312,61.1446512738123
Landolphia lanceolata,1.0,0.0,0.0,1.0,1.0,1.0,1.0,0.0,0.0,1.0,0.0,0.0,0.0,0.0,23.8037490844727,77.8967514038086,24.5377502441406,23.1009998321533,1526.69580078125,68.1360015869141,603.362731933594,26.2395000457764,634.905822753906,634.747497558594,1.24471497535706,125.875,53.3333320617676,4052.0,41.5625,17.0,-5.498055,18.89389,Apocynaceae,Landolphia,3.0,0.0,1,0.17397401738230053,5.747984756841835
Landolphia owariensis,1.0,1.0,0.0,1.0,1.0,1.0,1.0,1.0,0.0,1.0,0.0,0.0,0.0,0.0,25.2670001983643,103.582252502441,26.4235000610352,24.1607494354248,1631.07080078125,64.2214965820312,681.610229492188,71.7174987792969,323.362884521484,314.369995117188,0.639143764972687,179.625,53.1041679382324,8931.5,45.5,19.5625,5.4,7.383333,Apocynaceae,Landolphia,3.0,1.0,1,0.547515869612868,1.8264310780746316
Leptadenia madagascariensis,1.0,1.0,0.0,1.0,1.0,1.0,1.0,0.0,0.0,1.0,0.0,0.0,0.0,0.0,24.88249969482425,209.643005371094,26.6687507629395,21.7172508239746,994.494262695312,102.225875854492,614.468505859375,24.0607490539551,111.2049827575685,90.0374984741211,1.2420865893363948,131.22917175293,64.6041641235352,5515.75,41.15625,16.84375,-22.474995,45.093885,Apocynaceae,Leptadenia,3.0,1.0,1,0.25314452316639535,3.9503126020336072
Leuconotis eugeniifolia,1.0,0.0,1.0,1.0,0.0,0.0,0.0,1.0,0.0,1.0,0.0,0.0,0.0,0.0,25.5362491607666,34.9392509460449,25.9937496185303,25.2842502593994,3719.22485351562,20.8955001831055,1172.84155273438,658.043762207031,269.756225585938,194.767501831055,2.35712313652039,302.041656494141,49.1041679382324,1223.75,62.8666648864746,26.4375,0.6,110.6,Apocynaceae,Leuconotis,1.0,1.0,1,0.8560216226992887,1.168194790274929
Leuconotis griffithii,1.0,0.0,0.0,0.0,0.0,0.0,0.0,1.0,0.0,1.0,0.0,0.0,0.0,0.0,25.1938753128052,38.97375106811525,25.51850032806395,24.88525009155275,3419.6605224609348,22.82674980163575,1113.46179199219,510.710998535156,192.67590713500965,195.3187484741215,2.43894666433334,318.01042175292946,48.2619037628174,1215.375,62.25,25.125,0.4547165,110.94705,Apocynaceae,Leuconotis,1.0,1.0,1,0.6013752097096062,1.6628553752371715
Marsdenia latifolia,1.0,0.0,0.0,1.0,0.0,1.0,1.0,1.0,0.0,1.0,0.0,1.0,0.0,0.0,25.3419990539551,102.008247375488,26.6117496490479,24.2614994049072,1597.88903808594,56.9799995422363,646.996520996094,87.2607498168945,256.011077880859,250.517501831055,0.904349029064178,229.866668701172,52.25,10962.0,42.3125,18.6875,6.166667,-0.6,Apocynaceae,Marsdenia,3.0,1.0,1,0.5294465722223767,1.8887647072724512
Mondia whitei,1.0,1.0,1.0,1.0,1.0,1.0,0.0,0.0,0.0,1.0,0.0,0.0,0.0,0.0,26.5452499389648,128.839492797852,28.2390003204346,24.9047508239746,1151.17419433594,63.0437507629395,508.269744873047,50.7227516174316,141.922439575195,136.375,0.620427668094635,157.70832824707,59.9375,12785.0,41.4000015258789,18.6875,6.930859,2.3,Apocynaceae,Mondia,3.0,0.0,1,0.9554920168956691,1.0465812192224635
Monolluma quadrangula,1.0,0.0,0.0,0.0,1.0,0.0,1.0,0.0,0.0,0.0,1.0,0.0,0.0,0.0,22.6822490692139,289.627014160156,26.2299995422363,18.1862506866455,227.269744873047,64.9962463378906,129.300994873047,15.8007497787476,1136.28259277344,1183.88244628906,4.98338890075684,192.0625,79.0208358764648,3849.75,24.9375,17.75,14.82083,48.73333,Apocynaceae,Monolluma,4.0,0.0,1,0.1201160486068785,8.325282188334779
Motandra paniculata,1.0,0.0,0.0,1.0,1.0,1.0,1.0,0.0,0.0,1.0,0.0,0.0,0.0,0.0,26.5452499389648,117.995246887207,28.0982494354248,24.960750579834,1194.25646972656,62.857250213623,496.833740234375,55.189998626709,93.5207748413086,99.6524963378906,0.529362142086029,181.14582824707,59.8958320617676,14694.0,38.3125,17.4375,6.879232,2.479844,Apocynaceae,Motandra,3.0,0.0,1,0.8710355383401588,1.148058782889152
Ochrosia acuminata,1.0,0.0,0.0,1.0,0.0,0.0,0.0,1.0,0.0,0.0,0.0,0.0,0.0,1.0,24.32725048065185,36.7583751678467,24.70674991607665,23.62412548065185,3110.7254638671902,28.016124725341747,1046.91076660156,481.8751220703125,410.3878173828125,430.106246948242,4.81710696220398,286.788970947266,49.715278625488295,1819.375,60.91875076293945,27.09375,-1.7766665,121.2724,Apocynaceae,Ochrosia,1.0,1.0,1,0.17251261926024472,5.796677392576396
Ochrosia elliptica,1.0,1.0,1.0,1.0,1.0,0.0,0.0,1.0,0.0,0.0,0.0,0.0,0.0,1.0,23.30299949646,237.128997802734,26.2112503051758,19.5555000305176,1605.98254394531,55.8294982910156,700.580261230469,119.877502441406,33.4321327209473,43.3375015258789,0.949938714504242,203.714279174805,55.5208339691162,1599.5,56.8333339691162,21.4375,-20.46667,152.9738,Apocynaceae,Ochrosia,3.0,1.0,1,0.5445538187447797,1.8363657834684615
Ochrosia glomerata,1.0,0.0,0.0,0.0,1.0,0.0,0.0,0.0,0.0,0.0,0.0,0.0,0.0,1.0,26.1312503814697,44.9427490234375,26.4354991912842,25.2320003509521,2611.64453125,38.7779998779297,925.682006835938,401.710754394531,126.529083251953,110.410003662109,2.02683305740356,307.354156494141,54.34444427490235,1638.0,63.2000007629395,26.5625,0.613917,122.5333,Apocynaceae,Ochrosia,1.0,1.0,1,0.02496800245863854,40.05126167608236
Ochrosia kilneri,1.0,0.0,1.0,0.0,0.0,0.0,0.0,1.0,0.0,0.0,0.0,0.0,0.0,1.0,22.8509998321533,283.906494140625,26.1280002593994,18.8020000457764,1588.11120605469,83.8097534179688,882.103759765625,94.3977508544922,125.235458374023,116.194999694824,3.52021312713623,152.138885498047,59.1111106872559,2520.75,38.0,19.5,-20.2706,148.5833,Apocynaceae,Ochrosia,3.0,1.0,1,0.2525604181613826,3.9594486233429262
Ochrosia lifuana,0.0,0.0,1.0,0.0,0.0,0.0,0.0,1.0,0.0,0.0,0.0,0.0,0.0,1.0,23.8134994506836,174.912750244141,26.0965003967285,21.4804992675781,1706.49096679688,44.838249206543,707.067993164062,232.323745727539,21.1966762542725,24.7724990844727,0.41183152794838,491.194458007812,53.0,2246.5,65.2857131958008,27.0,-20.88333,167.25,Apocynaceae,Ochrosia,1.0,1.0,1,0.17623236626602823,5.674326579094267
Ochrosia miana,0.0,0.0,1.0,0.0,0.0,0.0,0.0,1.0,0.0,0.0,0.0,0.0,0.0,1.0,21.6747493743896,211.481246948242,24.4072494506836,18.9657497406006,2079.02270507812,43.7747497558594,884.451232910156,242.123504638672,244.922439575195,202.865005493164,4.05791759490967,238.688888549805,53.1555557250977,1013.75,68.7333297729492,23.625,-22.06889,166.6336,Apocynaceae,Ochrosia,1.0,1.0,1,0.0628874616299811,15.901420952300894
Ochrosia moorei,1.0,0.0,1.0,0.0,1.0,0.0,0.0,1.0,0.0,0.0,0.0,0.0,0.0,1.0,19.0207500457764,357.31201171875,23.4842491149902,13.7495002746582,1533.04772949219,36.002498626709,558.557495117188,208.423492431641,85.7368392944336,81.5725021362305,1.90990197658539,273.714294433594,51.4222221374512,1741.375,75.0,23.375,-28.643065,153.38635,Apocynaceae,Ochrosia,14.0,1.0,1,0.18629970754839495,5.367694953252842
Ochrosia vitiensis,0.0,0.0,1.0,1.0,0.0,0.0,0.0,1.0,0.0,0.0,0.0,0.0,0.0,1.0,,,,,,,,,,,,,,,,,,,Apocynaceae,Ochrosia,,1.0,1,0.1446692537056767,6.912318784988387
Parahancornia fasciculata,1.0,1.0,0.0,1.0,1.0,1.0,0.0,1.0,0.0,0.0,0.0,1.0,0.0,1.0,25.9508752822876,61.20425033569335,26.819000244140653,25.4047498703003,2410.10180664062,55.03512382507325,1039.48959350586,229.348495483398,79.90304946899415,81.9049987792969,0.532310605049133,194.40625,46.09722137451175,3171.375,48.53125,22.28125,-0.15,-54.38758,Apocynaceae,Parahancornia,1.0,0.0,1,0.6747209157714883,1.4820942653846467
Pentalinon andrieuxii,1.0,0.0,0.0,0.0,0.0,0.0,0.0,0.0,0.0,1.0,0.0,0.0,0.0,0.0,26.0604991912842,177.303497314453,27.8052501678467,23.6192502975464,1301.999633789065,62.1952514648438,582.632507324219,99.37162399291996,33.6675910949707,35.3474998474121,0.331014722585678,343.145843505859,71.8958358764648,255.66667175293,68.3333358764648,27.6875,18.55242,-89.95265,Apocynaceae,Pentalinon,3.0,0.0,1,0.067812468236963,14.746550686012682
Pergularia daemia,1.0,1.0,1.0,1.0,1.0,1.0,1.0,1.0,0.0,1.0,0.0,0.0,0.0,0.0,26.4877490997314,143.802749633789,28.0982494354248,24.5259990692139,1102.01403808594,74.7204971313477,521.203735351562,39.9109992980957,225.518005371094,230.837493896484,0.588286519050598,147.54167175293,62.0,11027.75,36.6875,18.5625,7.04786,2.655435,Apocynaceae,Pergularia,3.0,0.0,1,0.9892851993965871,1.0108308510123758
Periploca linearifolia,1.0,0.0,0.0,1.0,0.0,1.0,1.0,0.0,0.0,1.0,0.0,1.0,0.0,0.0,17.7569999694824,113.744247436523,19.2730007171631,16.2703742980957,1441.0347290039049,88.9367523193359,685.3655090332035,29.3032493591309,1823.98059082031,1705.692504882815,4.2736382484436,208.91667175293,55.2916679382324,7258.5,63.65625,24.375,-3.4666665,34.616665,Apocynaceae,Periploca,12.0,0.0,1,0.15155756061843162,6.598153176387199
Periploca somaliensis,1.0,0.0,0.0,0.0,0.0,0.0,1.0,0.0,0.0,1.0,0.0,1.0,0.0,0.0,20.02587509155275,342.669494628906,23.7784996032715,15.38637495040895,266.765014648438,64.9962463378906,129.300994873047,13.5827503204346,1136.28259277344,1691.12744140625,4.30340671539307,210.10417175293,79.4166641235352,6130.75,24.9375,14.8125,14.832260000000002,48.797495,Apocynaceae,Periploca,4.0,0.0,1,0.05345285435306548,18.70807484657086
Picralima nitida,1.0,1.0,1.0,1.0,1.0,1.0,0.0,1.0,0.0,0.0,0.0,0.0,0.0,1.0,24.7255001068115,85.2774963378906,25.7409992218018,23.6637496948242,1743.30102539062,62.4837493896484,704.296752929688,86.9432525634766,281.409973144531,265.470001220703,0.689148247241974,201.644439697266,50.6923065185547,8193.5,47.8125,21.6875,2.926296,10.5894,Apocynaceae,Picralima,3.0,0.0,1,0.7188988637928907,1.3910162477153287
Plectaneia thouarsii,1.0,0.0,0.0,0.0,0.0,0.0,0.0,0.0,0.0,1.0,0.0,0.0,0.0,0.0,23.23799991607665,210.160751342773,25.4847507476807,20.4799995422363,1863.37023925781,73.8477516174316,1041.497253417965,149.907623291016,187.653739929199,156.808753967285,1.275366842746735,206.3125,57.3333320617676,4586.25,54.0714302062988,21.21875,-18.94069,47.65453,Apocynaceae,Plectaneia,3.0,1.0,1,0.04509582667078546,22.17500096628304
Pleiocarpa mutica,1.0,1.0,0.0,1.0,1.0,1.0,0.0,1.0,0.0,0.0,0.0,0.0,0.0,1.0,25.4675006866455,92.3967514038086,26.643125534057653,24.2647495269775,1906.92150878906,59.6655006408691,831.852478027344,152.808753967285,93.9390563964844,99.6399993896484,0.5357268452644345,180.520835876465,50.3645839691162,11823.25,40.75,17.875,5.25,-3.6666665,Apocynaceae,Pleiocarpa,2.0,0.0,1,0.8062980728789628,1.240236128097648
Plumeria alba,1.0,1.0,1.0,1.0,1.0,1.0,0.0,0.0,0.0,0.0,0.0,0.0,0.0,1.0,26.0492496490479,96.8184967041016,27.1937503814697,24.7430000305176,1203.96020507812,38.007999420166,467.591491699219,167.854751586914,6.71191120147705,17.4300003051758,0.585726499557495,467.722229003906,61.4444427490234,1348.0,64.0,27.5,17.95981,-64.84871,Apocynaceae,Plumeria,0.0,0.0,1,0.1844492081841016,5.421546721967408
Plumeria rubra,1.0,1.0,1.0,1.0,1.0,1.0,0.0,1.0,0.0,0.0,0.0,0.0,0.0,1.0,24.129750251770048,173.835006713867,26.5685005187988,21.0345001220703,1180.66455078125,90.2223777770996,642.303527832031,31.2040004730225,370.966766357422,378.166244506836,2.28204154968262,246.04167175293,63.3333320617676,754.5,51.75,26.0625,18.229080000000003,-96.1926,Apocynaceae,Plumeria,3.0,1.0,1,0.6564258936023458,1.523401209102496
Rauvolfia caffra,1.0,1.0,1.0,1.0,1.0,0.0,0.0,1.0,0.0,0.0,0.0,0.0,0.0,1.0,21.23050022125245,171.511001586914,23.69512462615965,18.751999855041497,1164.41479492188,63.6622505187988,550.979888916016,85.65262603759766,469.860107421875,464.8312530517575,2.05897283554077,196.71250152587905,57.1025657653809,4623.125,51.8333320617676,21.71875,-7.824021500000001,29.757485,Apocynaceae,Rauvolfia,3.0,0.0,1,0.20143023081243835,4.964498109179796
Rauvolfia mombasiana,1.0,0.0,1.0,1.0,0.0,1.0,0.0,1.0,0.0,0.0,0.0,0.0,0.0,1.0,24.836250305175803,152.63437652587902,26.4804992675781,22.48425006866455,1191.66479492188,67.27399826049805,582.464111328125,85.15549850463864,197.673126220703,227.4187469482425,1.66477906703949,158.52082824707,59.2708320617676,7737.5,42.625,20.03125,-5.0527750000000005,38.875275,Apocynaceae,Rauvolfia,3.0,0.0,1,0.6574341236510284,1.5210649463197146
Rauvolfia vomitoria,1.0,1.0,1.0,1.0,1.0,1.0,0.0,1.0,0.0,0.0,0.0,0.0,0.0,1.0,26.2350006103516,112.099746704102,27.7935009002686,24.6685009002686,1305.05249023438,65.5865020751953,594.627014160156,56.8157501220703,112.177284240723,100.17749786377,0.552267611026764,170.66667175293,56.261905670166,11583.75,44.8705348968506,19.5625,6.590556,2.151944,Apocynaceae,Rauvolfia,3.0,1.0,1,0.7851740768233556,1.2736029238838138
Schizozygia coffeoides,1.0,1.0,0.0,1.0,0.0,0.0,0.0,1.0,0.0,0.0,0.0,1.0,0.0,0.0,,,,,,,,,,,,,,,,,,,Apocynaceae,Schizozygia,,0.0,1,0.02202861266592003,45.395505162568746
Secamone afzelii,1.0,0.0,0.0,1.0,1.0,1.0,1.0,1.0,0.0,1.0,0.0,0.0,0.0,0.0,26.8055000305176,123.457000732422,28.5197505950928,25.0785007476807,1124.71154785156,65.2057495117188,516.320739746094,50.0970001220703,72.9944610595703,60.5275001525879,0.501267850399017,157.70832824707,61.4791679382324,13033.5,35.75,17.3125,6.900312,2.15074,Apocynaceae,Secamone,3.0,1.0,1,0.6040272543481476,1.6555544353361622
Streptocaulon juventas,1.0,1.0,0.0,1.0,1.0,1.0,0.0,0.0,0.0,1.0,0.0,0.0,0.0,0.0,23.67425060272215,258.0225067138676,27.70524978637695,20.17150020599365,1558.60308837891,77.37799835205075,784.7674865722655,49.84100151062015,360.916900634766,393.4250030517581,2.49682450294495,193.977783203125,57.1126899719238,2939.5,52.847917556762695,24.0625,18.57867,102.4083,Apocynaceae,Streptocaulon,3.0,1.0,1,0.3448265569482639,2.9000086560909377
Strophanthus eminii,1.0,1.0,1.0,1.0,1.0,1.0,1.0,0.0,0.0,1.0,0.0,1.0,0.0,0.0,22.9244995117188,120.559753417969,24.4587497711182,21.70924949646,815.241760253906,94.4020004272461,451.276489257812,3.07275009155273,1150.27978515625,1142.16748046875,1.14491605758667,114.916664123535,57.9583320617676,8471.25,34.0,16.5,-6.03332,34.48138,Apocynaceae,Strophanthus,3.0,0.0,1,0.39686562677428355,2.5197445496300133
Tabernaemontana arborea,1.0,0.0,1.0,0.0,1.0,0.0,1.0,1.0,0.0,0.0,0.0,0.0,0.0,1.0,24.8597507476807,96.46899795532224,25.9955005645752,23.2292499542236,2989.00244140625,60.00062561035155,1231.91625976562,182.142875671387,170.502769470215,200.777496337891,2.04377347230911,357.166656494141,56.1458339691162,1663.5,60.6923065185547,26.4375,14.927915,-86.47961000000001,Apocynaceae,Tabernaemontana,2.0,1.0,1,0.09540565242446801,10.48155926391985
Tabernaemontana catharinensis,1.0,1.0,1.0,1.0,1.0,0.0,1.0,1.0,0.0,0.0,0.0,0.0,0.0,1.0,21.68562507629395,289.260986328125,25.16825008392335,17.601749420166,1594.01727294922,34.7822494506836,582.1056213378905,198.668502807617,309.7673034667965,321.404998779297,1.08972942829132,200.7861099243165,53.8958320617676,1612.0,48.7142868041992,22.1875,-24.438765,-52.645885,Apocynaceae,Tabernaemontana,14.0,1.0,1,0.1675648112862315,5.967840099147167
Tabernaemontana cymosa,1.0,1.0,1.0,1.0,1.0,0.0,1.0,1.0,0.0,0.0,0.0,0.0,0.0,1.0,25.6159992218018,62.1990013122559,26.3934993743896,24.699499130249,1609.52404785156,55.5994987487793,655.460266113281,118.380249023438,177.371185302734,203.732498168945,0.773921072483063,228.035713195801,56.7575759887695,3576.5,50.6363639831543,24.0,7.93269,-73.5,Apocynaceae,Tabernaemontana,3.0,0.0,1,0.23749071509740285,4.210690929916425
Tabernaemontana elegans,1.0,1.0,1.0,1.0,1.0,1.0,1.0,1.0,0.0,0.0,0.0,0.0,0.0,1.0,22.4409999847412,267.480499267578,25.648250579834,18.7507495880127,809.757507324219,75.4039993286133,365.223236083984,37.4720001220703,281.878112792969,276.972503662109,0.822343230247498,124.645835876465,62.5,4448.75,38.0,18.25,-24.65,32.2981,Apocynaceae,Tabernaemontana,6.0,1.0,1,0.7442481515327614,1.343637868553014
Tabernaemontana hystrix,1.0,0.0,0.0,1.0,1.0,1.0,1.0,1.0,0.0,0.0,0.0,0.0,0.0,1.0,22.359375,203.792129516602,24.72150039672855,19.2864999771118,1443.10150146484,59.4137496948242,672.677642822266,129.412124633789,509.164825439453,515.5350036621095,1.209045290946965,205.6694412231445,53.4583320617676,1921.25,49.5625,21.71875,-22.28889,-44.61028,Apocynaceae,Tabernaemontana,3.0,1.0,1,0.6436675695550029,1.5535969921419936
Tabernaemontana oppositifolia,1.0,0.0,1.0,0.0,1.0,0.0,1.0,1.0,0.0,0.0,0.0,0.0,0.0,1.0,24.949499130249,116.702003479004,26.3484992980957,23.5955009460449,1699.58374023438,28.5027503967285,659.830993652344,276.778015136719,247.14404296875,293.497497558594,2.94442653656006,346.4375,54.6666679382324,1746.0,67.75,29.5625,18.2761,-66.3242,Apocynaceae,Tabernaemontana,1.0,1.0,1,0.051531364835110546,19.405657179851303
Tabernaemontana pachysiphon,1.0,1.0,1.0,1.0,1.0,0.0,1.0,1.0,0.0,0.0,0.0,0.0,0.0,1.0,24.7994995117188,113.057998657227,26.2672500610352,23.3619995117188,1297.34527587891,62.7587509155273,547.268737792969,59.5342483520508,409.8490295410155,427.079986572266,0.8640001714229585,193.375,58.2604160308838,9418.25,44.1875,19.0,5.483333,9.5433335,Apocynaceae,Tabernaemontana,3.0,1.0,1,0.4079923144639634,2.451026562384735
Tabernaemontana panamensis,1.0,0.0,0.0,0.0,1.0,0.0,1.0,0.0,0.0,0.0,0.0,0.0,0.0,1.0,23.9962501525879,33.5482482910156,24.4139995574951,23.4985008239746,3335.04858398438,54.789249420166,1193.83251953125,151.175750732422,373.293640136719,408.897491455078,3.83407855033875,390.395843505859,53.0208320617676,4428.75,63.875,26.5,8.63333,-79.32194,Apocynaceae,Tabernaemontana,2.0,0.0,1,0.018209289975301805,54.91702319839771
Tabernaemontana peduncularis,1.0,0.0,0.0,1.0,1.0,0.0,1.0,0.0,0.0,0.0,0.0,0.0,0.0,1.0,25.5362501144409,80.6574974060059,26.49437427520749,24.58987522125245,2523.730712890625,61.0682487487793,1091.6441040039049,140.65287780761702,331.0595703125,271.3999938964845,3.64137423038483,268.0555572509765,52.2395839691162,4978.25,56.90625,23.1875,10.066665,99.75,Apocynaceae,Tabernaemontana,2.0,1.0,1,0.02533058122075098,39.477972940502184
Tabernaemontana rupicola,1.0,0.0,0.0,0.0,1.0,0.0,1.0,1.0,0.0,0.0,0.0,0.0,0.0,1.0,26.1464996337891,49.9022483825684,26.824499130249,25.6084995269775,2429.32739257812,40.8455009460449,937.521240234375,314.184509277344,59.9584503173828,60.3349990844727,0.356751590967178,168.04167175293,42.1777763366699,2199.5,47.5999984741211,22.6875,-2.53,-60.37406,Apocynaceae,Tabernaemontana,1.0,1.0,1,0.026558469764178003,37.6527717477457
Tabernaemontana sessilifolia,1.0,0.0,0.0,0.0,1.0,0.0,1.0,1.0,0.0,0.0,0.0,0.0,0.0,1.0,17.6030006408691,248.790756225586,20.3864994049072,14.1327495574951,1982.62780761719,81.6920013427734,1100.32275390625,105.263000488281,1008.50140380859,1085.02001953125,3.00148296356201,225.91667175293,55.1875,3557.25,67.25,21.25,-18.792,47.43333,Apocynaceae,Tabernaemontana,12.0,0.0,1,0.030215426875487457,33.09567672569469
Tabernaemontana undulata,1.0,1.0,0.0,1.0,1.0,0.0,1.0,1.0,0.0,0.0,0.0,0.0,0.0,1.0,25.5362501144409,56.2529983520508,26.18262577056885,24.89187526702885,2535.61083984375,54.4733753204346,1071.85705566406,252.3552474975585,135.761772155762,142.3125,1.1653252243995702,248.75,47.8958320617676,3113.0,52.4375,23.8125,4.67264,-60.2,Apocynaceae,Tabernaemontana,1.0,0.0,1,0.053986603918552985,18.523113650724397
Vallaris glabra,1.0,0.0,0.0,1.0,0.0,0.0,0.0,1.0,0.0,1.0,0.0,0.0,0.0,0.0,26.6700000762939,52.2159996032715,27.4527492523193,26.0727500915527,2491.28930664062,66.8290023803711,893.16552734375,120.847999572754,65.5429382324219,50.3325004577637,0.678150534629822,224.66667175293,55.8333320617676,3655.75,56.3125,24.5,1.424614,103.8382,Apocynaceae,Vallaris,1.0,1.0,1,0.4488829960877964,2.227752017152397
Vallesia glabra,1.0,1.0,1.0,1.0,1.0,1.0,0.0,1.0,0.0,0.0,0.0,1.0,0.0,0.0,22.43487548828125,364.7701263427735,27.24149990081785,17.29975032806395,661.81201171875,95.3324966430664,366.228240966797,12.7586245536804,338.3310241699215,368.592498779297,2.109112977981565,157.047622680664,71.25,577.25,37.875,23.875,23.11093,-106.25405,Apocynaceae,Vallesia,6.0,1.0,1,0.680233579509099,1.4700832627546339
Vincetoxicum stocksii,1.0,0.0,0.0,0.0,0.0,0.0,1.0,0.0,0.0,1.0,0.0,0.0,0.0,0.0,17.8090000152588,792.199768066406,26.9147491455078,6.85550022125244,307.558746337891,73.9375,133.875747680664,21.9242496490479,1490.04431152344,1605.19494628906,3.15433859825134,78.6041641235352,78.8958358764648,3841.25,17.9375,18.125,31.26,69.3603,Apocynaceae,Vincetoxicum,4.0,0.0,1,0.005118039688258331,195.38730860062947
Voacanga africana,1.0,1.0,1.0,1.0,1.0,1.0,1.0,1.0,0.0,0.0,0.0,0.0,0.0,1.0,25.91637516021725,115.985378265381,27.359749794006348,24.322875022888148,1344.56896972656,70.4309997558594,648.4046325683595,55.4544982910156,247.084487915039,260.149993896484,0.6300637423992155,180.9375,56.261905670166,10468.5,45.4375,19.5625,6.840149,2.1693405,Apocynaceae,Voacanga,3.0,1.0,1,0.9773500488963173,1.0231748605622524
Voacanga globosa,1.0,0.0,1.0,1.0,0.0,0.0,1.0,1.0,0.0,0.0,0.0,0.0,0.0,1.0,26.3248748779297,90.0350036621094,27.24324989318849,24.3002490997314,3149.76831054688,58.1245002746582,1533.977294921875,246.839248657227,159.7783870697022,127.182502746582,2.474434971809385,314.34375,55.5208320617676,1800.91668701172,67.75,27.78125,14.089235,121.7462,Apocynaceae,Voacanga,2.0,1.0,1,0.4432149788228446,2.2562414353773574
Voacanga grandifolia,1.0,0.0,0.0,1.0,1.0,0.0,1.0,1.0,0.0,0.0,0.0,0.0,0.0,1.0,25.5917491912842,62.5007514953613,26.5152492523193,24.7215003967285,2340.99731445312,35.6775016784668,959.294250488281,373.316986083984,129.407196044922,103.584999084473,1.43600630760193,267.9375,53.1666679382324,2346.0,59.375,26.25,-7.669794,142.8333,Apocynaceae,Voacanga,1.0,1.0,1,0.5417698533817872,1.8458022235048512
Voacanga thouarsii,1.0,1.0,1.0,1.0,1.0,0.0,1.0,1.0,0.0,0.0,0.0,0.0,0.0,1.0,23.4202499389648,183.585006713867,25.3082504272461,21.0237503051758,1714.55920410156,58.1602516174316,871.078002929688,108.87474822998,254.448760986328,252.110000610352,1.0970972776413,211.72917175293,55.5833320617676,4395.75,52.0666656494141,20.6875,-16.3,33.43333,Apocynaceae,Voacanga,3.0,1.0,1,0.7861371637088075,1.2720426487436858
Wrightia arborea,1.0,1.0,0.0,1.0,1.0,0.0,1.0,1.0,0.0,0.0,0.0,0.0,0.0,1.0,24.9322490692139,210.674743652344,27.2777500152588,21.8194999694824,1437.93298339844,78.6932525634766,714.623229980469,28.6280002593994,462.487548828125,457.097503662109,3.26944351196289,201.20832824707,57.355554580688505,4493.5,55.75,24.0625,16.74995,99.20767,Apocynaceae,Wrightia,3.0,0.0,1,0.12064992168718092,8.288443009459908
Wrightia dubia,1.0,0.0,0.0,1.0,1.0,1.0,1.0,1.0,0.0,0.0,0.0,0.0,0.0,1.0,26.2327499389648,69.8580017089844,27.0639991760254,25.2427501678467,2708.36401367188,73.3612518310547,1335.54772949219,106.836502075195,210.191131591797,144.217498779297,2.07234954833984,269.125,52.4166679382324,5302.5,55.75,22.8125,9.833333,99.8,Apocynaceae,Wrightia,2.0,0.0,1,0.5340493124140543,1.8724862606408321
Wrightia tinctoria,1.0,1.0,1.0,1.0,1.0,0.0,1.0,1.0,0.0,0.0,0.0,0.0,0.0,1.0,25.18562507629395,196.052001953125,28.24262523651125,22.08100032806395,1021.3881530761752,91.8753776550293,597.065612792969,19.8185005187988,473.0900268554685,541.4937744140625,0.8639522194862366,142.59775543212902,65.5999984741211,5358.75,42.7142868041992,24.15625,13.582265,77.102025,Apocynaceae,Wrightia,3.0,0.0,1,0.308170702014523,3.2449548041490117
Xysmalobium undulatum,1.0,1.0,1.0,1.0,1.0,0.0,1.0,0.0,1.0,0.0,0.0,0.0,0.0,0.0,16.2145004272461,345.606506347656,20.1350002288818,11.2572498321533,814.962280273438,76.0032501220703,376.5830078125,35.1199989318848,1460.49035644531,1474.55004882812,1.68352687358856,147.0,59.0555572509766,2107.5,44.0666656494141,19.6875,-26.625,29.8164,Apocynaceae,Xysmalobium,12.0,1.0,1,0.00812879487974633,123.01946534431515
Agathisanthemum bojeri,1.0,0.0,0.0,1.0,0.0,1.0,1.0,0.0,0.0,0.0,0.0,1.0,1.0,0.0,22.943000793457,193.34049987793,25.67662525177,19.7180004119873,1091.47723388672,74.7365036010742,538.0447387695315,56.29874992370605,354.18281555175747,423.0625,0.92304265499115,139.23264312744152,59.2326374053955,7226.875,40.5,19.0625,-10.565833,38.423884,Rubiaceae,Agathisanthemum,3.0,0.0,1,0.5385409979232669,1.8568688435165028
Amaioua glomerulata,1.0,0.0,0.0,0.0,1.0,0.0,0.0,1.0,0.0,0.0,0.0,1.0,0.0,1.0,25.5294990539551,69.963752746582,26.5017509460449,24.4207496643066,2533.79614257812,57.1707496643066,1045.49670410156,180.382507324219,126.393348693848,118.102500915527,0.763853847980499,290.6875,53.375,2585.75,56.6875,24.875,8.06666,-75.17,Rubiaceae,Amaioua,2.0,0.0,1,0.10073192036063615,9.927339778888781
Aoranthe cladantha,1.0,0.0,0.0,1.0,0.0,1.0,1.0,0.0,0.0,1.0,0.0,1.0,1.0,0.0,24.7840003967285,79.8864974975586,25.710750579834,23.4634990692139,2220.98193359375,63.6622505187988,1023.56176757812,84.7754974365234,239.462600708008,265.470001220703,0.927686989307404,201.41667175293,49.2708320617676,8026.75,51.5,21.8125,-0.133333,10.733333,Rubiaceae,Aoranthe,3.0,0.0,1,0.3833695063414011,2.608449507482404
Bertiera borbonica,1.0,0.0,0.0,0.0,1.0,0.0,1.0,0.0,0.0,0.0,0.0,1.0,0.0,1.0,16.5270004272461,230.114242553711,19.3964996337891,13.6070003509521,3263.52978515625,62.5982513427734,1406.81921386719,359.002746582031,333.163421630859,1126.65747070312,9.65486145019531,352.444458007812,54.2592582702637,967.25,74.8666687011719,31.4375,-21.20659,55.65127,Rubiaceae,Bertiera,15.0,0.0,1,0.006389430350865692,156.50847494792893
Burchellia bubalina,1.0,1.0,0.0,1.0,1.0,0.0,0.0,0.0,0.0,0.0,0.0,1.0,0.0,1.0,17.2795000076294,274.796752929688,20.6147499084473,13.6557502746582,780.870971679688,33.306999206543,258.324005126953,98.8509979248047,363.70361328125,436.652496337891,2.6658251285553,216.133331298828,62.4285697937012,1739.5,49.76363563537595,18.75,-33.33217500000001,26.59751,Rubiaceae,Burchellia,14.0,0.0,1,0.019917175226311097,50.20792299296411
Calycophyllum multiflorum,1.0,1.0,0.0,1.0,1.0,1.0,0.0,0.0,0.0,0.0,0.0,0.0,0.0,1.0,23.691499710083,277.845764160156,26.914249420166,19.8832492828369,1283.60400390625,56.798999786377,532.322265625,92.0425033569336,224.803329467773,217.012496948242,0.815946340560913,164.08332824707,58.4583320617676,2055.25,43.2142868041992,20.125,-21.2778,-57.68805,Rubiaceae,Calycophyllum,3.0,0.0,1,0.22434940550900984,4.457332961195835
Canthium glaucum,1.0,0.0,0.0,1.0,0.0,1.0,1.0,1.0,0.0,0.0,0.0,1.0,0.0,1.0,23.950249671936,177.962127685547,26.2476243972778,20.97624969482425,960.9752502441404,84.44000244140639,441.2398834228515,50.81250113248828,653.3531646728516,621.894989013672,0.7236250638961794,119.3222198486325,59.6041660308838,5990.25,35.75,16.875,-8.42375,33.8035,Rubiaceae,Canthium,11.0,1.0,1,0.2825517051049533,3.539175244504548
Capirona macrophylla,1.0,1.0,0.0,1.0,1.0,1.0,0.0,0.0,0.0,0.0,0.0,1.0,0.0,1.0,24.9572505950928,63.3175010681152,25.8377494812012,23.9582500457764,2724.36694335938,52.1082496643066,1062.541015625,225.345504760742,224.745147705078,230.942504882812,0.548391163349152,198.83332824707,48.2708320617676,2590.25,49.125,22.0,-1.066667,-71.16667,Rubiaceae,Capirona,1.0,0.0,1,0.08844438213220207,11.30654062917475
Carapichea affinis,1.0,0.0,0.0,0.0,0.0,0.0,1.0,1.0,0.0,0.0,0.0,1.0,1.0,1.0,24.7870006561279,48.9397506713867,25.3495006561279,23.9882507324219,3546.41455078125,47.4477500915527,1154.36669921875,365.738494873047,241.86149597168,215.794998168945,1.9070508480072,299.520843505859,49.9791679382324,2110.5,57.5625,24.75,-1.5,-76.38333,Rubiaceae,Carapichea,1.0,1.0,1,0.046899700533649384,21.3220977665417
Carapichea ipecacuanha,1.0,1.0,1.0,1.0,1.0,1.0,1.0,1.0,0.0,0.0,0.0,1.0,1.0,1.0,25.2053756713867,73.5501251220703,26.1147499084473,23.85700035095215,1947.40454101562,57.63837623596195,902.2166137695316,120.836502075195,174.7119064331055,178.6937484741215,0.7638155519962315,238.8659744262695,53.125,3022.5,53.625,22.84375,-11.515,-62.09,Rubiaceae,Carapichea,3.0,1.0,1,0.8278726322741805,1.2079152770794979
Carapichea klugii,1.0,0.0,0.0,0.0,0.0,0.0,1.0,1.0,0.0,0.0,0.0,1.0,1.0,1.0,25.1483745574951,44.92100143432615,25.513750076293952,24.4393749237061,3288.24548339844,19.96750068664555,1009.156280517578,603.146728515625,128.408588409424,125.7275009155275,0.310405045747757,223.85417175293,45.3958320617676,1962.0,53.1875,21.875,-1.3714585,-72.950415,Rubiaceae,Carapichea,1.0,1.0,1,0.02242793031049607,44.58726178277846
Cephalanthus natalensis,1.0,0.0,0.0,1.0,0.0,0.0,1.0,1.0,0.0,0.0,0.0,1.0,0.0,1.0,16.931999206543,322.600738525391,20.3435001373291,12.4107503890991,971.411254882812,76.2487487792969,486.400756835938,39.8797492980957,1220.22717285156,1191.15747070312,4.32616519927979,168.52082824707,56.6222229003906,1775.5,50.0,21.25,-25.50833,30.625,Rubiaceae,Cephalanthus,12.0,0.0,1,0.17534740575104296,5.702964327968405
Chimarrhis turbinata,1.0,0.0,0.0,1.0,0.0,1.0,0.0,1.0,0.0,0.0,0.0,0.0,0.0,1.0,25.79524993896485,66.37137603759766,26.7530002593994,25.1051244735718,2425.4278564453152,53.0659999847412,1023.63146972656,214.297744750977,108.5304679870605,105.139999389648,0.528803467750549,208.583335876465,46.0104160308838,3227.75,47.625,22.6875,2.5683335,-53.058335,Rubiaceae,Chimarrhis,1.0,0.0,1,0.21980138168845104,4.549561937774401
Ciliosemina pedunculata,1.0,1.0,1.0,1.0,0.0,1.0,0.0,1.0,0.0,0.0,0.0,1.0,0.0,1.0,24.8192501068115,54.4065017700195,25.3404998779297,23.9487495422363,3372.11572265625,29.9177494049072,1122.12145996094,494.012512207031,220.168975830078,235.327499389648,0.771349906921387,241.384613037109,48.5416679382324,1962.0,58.769229888916,23.3125,0.18333,-73.62009,Rubiaceae,Ciliosemina,1.0,1.0,1,0.9489989484212147,1.0537419474106187
Cinchona calisaya,1.0,1.0,1.0,1.0,1.0,1.0,1.0,1.0,0.0,0.0,0.0,1.0,1.0,0.0,15.8719997406006,125.778999328613,17.0597496032715,14.0445003509521,2055.34057617188,52.3419990539551,832.1044921875,207.203247070312,1971.08581542969,2073.15502929688,12.5470104217529,351.5625,54.4583320617676,1605.5,83.6875,26.5625,-14.76639,-68.37908,Rubiaceae,Cinchona,12.0,1.0,1,0.9442511824428225,1.0590402411919175
Cinchona lancifolia,1.0,1.0,0.0,1.0,1.0,1.0,1.0,1.0,0.0,0.0,0.0,1.0,1.0,0.0,14.2702503204346,42.8465003967285,14.8222503662109,13.743500232696553,2022.80749511719,35.6567497253418,679.151489257812,240.7383728027345,2293.06372070312,2509.9813232421848,8.34665584564209,430.833343505859,52.9583320617676,1863.0,93.0625,28.28125,5.7346805,-73.465555,Rubiaceae,Cinchona,15.0,1.0,1,0.9149254278336627,1.0929852527629216
Cinchona macrocalyx,1.0,1.0,0.0,1.0,0.0,1.0,1.0,1.0,0.0,0.0,0.0,1.0,1.0,0.0,13.7554998397827,48.0572509765625,14.4017496109009,12.40625,1741.31530761719,44.6817512512207,724.30322265625,213.233993530273,2328.357421875,2425.03002929688,9.75129890441895,407.291656494141,57.4583320617676,1705.5,83.4375,26.5625,-3.96666,-78.92,Rubiaceae,Cinchona,15.0,1.0,1,0.8188317160131132,1.2212521577314983
Cinchona micrantha,1.0,0.0,0.0,1.0,0.0,0.0,1.0,1.0,0.0,0.0,0.0,1.0,1.0,0.0,22.8479995727539,51.4967498779297,23.29075050354,22.1520004272461,2151.5126953125,55.2755012512207,1015.27624511719,171.412002563477,772.684204101562,721.072509765625,3.23934149742126,292.645843505859,52.25,2038.5,65.5,24.1875,-10.75,-74.37556,Rubiaceae,Cinchona,1.0,1.0,1,0.38744237263203457,2.581029001052834
Cinchona nitida,1.0,0.0,0.0,1.0,0.0,0.0,1.0,1.0,0.0,0.0,0.0,1.0,1.0,0.0,16.0464992523193,62.2955017089844,16.5807495117188,15.0362501144409,1855.89050292969,49.5369987487793,797.09423828125,158.444000244141,2034.60107421875,1958.02502441406,7.97744655609131,344.729156494141,52.7708320617676,1798.75,84.8125,26.0,-10.65,-74.14,Rubiaceae,Cinchona,15.0,1.0,1,0.3555559480112247,2.8124968956177625
Cinchona officinalis,1.0,1.0,1.0,1.0,1.0,1.0,1.0,1.0,0.0,0.0,0.0,1.0,1.0,0.0,16.4615001678467,42.4602508544922,16.7439994812012,15.9224996566772,2022.80749511719,39.4480018615723,690.322509765625,238.153244018555,2203.28540039062,2152.01245117188,8.20076084136963,413.4375,54.0625,1460.5,83.4375,28.0,-1.4628,-76.65,Rubiaceae,Cinchona,15.0,1.0,1,0.9613663667086634,1.0401861710885547
Cinchona pitayensis,1.0,1.0,0.0,1.0,0.0,1.0,1.0,1.0,0.0,0.0,0.0,1.0,1.0,0.0,11.4592504501343,62.0009994506836,11.9602499008179,10.8985004425049,1791.17602539062,34.4049987792969,616.990478515625,173.373245239258,2825.46533203125,2885.26245117188,6.85834836959839,546.854187011719,55.5208320617676,920.25,99.1875,30.4375,0.5292,-77.765,Rubiaceae,Cinchona,15.0,1.0,1,0.8847002804025506,1.1303263061530697
Cinchona pubescens,1.0,1.0,1.0,1.0,1.0,1.0,1.0,1.0,0.0,0.0,0.0,1.0,1.0,0.0,16.1272506713867,44.2477493286133,16.6992492675781,15.4507503509521,2550.39770507812,42.6404991149902,965.308776855469,295.877014160156,1949.2548828125,2055.77490234375,8.76900100708008,430.833343505859,53.625,1517.25,88.9375,28.4375,4.36921,-75.58111,Rubiaceae,Cinchona,15.0,1.0,1,0.9454898421275612,1.05765282231883
Cinchona villosa,1.0,0.0,0.0,1.0,0.0,0.0,1.0,1.0,0.0,0.0,0.0,1.0,1.0,0.0,19.4827499389648,81.682746887207,20.244499206543,18.1397495269775,1985.5830078125,26.7842502593994,719.148010253906,336.928009033203,1223.37121582031,1233.11254882812,6.98573446273804,389.104156494141,52.6041679382324,1085.75,72.0,26.875,-4.28611,-78.59583,Rubiaceae,Cinchona,1.0,1.0,1,0.41335417142612413,2.419232873711843
Coffea arabica,1.0,1.0,1.0,1.0,1.0,1.0,1.0,1.0,0.0,0.0,0.0,1.0,0.0,1.0,21.0722503662109,111.912498474121,23.0607490539551,19.0697498321533,1803.29699707031,56.8262481689453,782.048767089844,153.336502075195,827.800537109375,828.877502441406,3.78469467163086,319.75,55.0520839691162,1960.625,67.3541679382324,26.875,7.786063,-76.11128,Rubiaceae,Coffea,3.0,0.0,1,0.5557690716195567,1.799308473726179
Coffea mauritiana,1.0,1.0,0.0,1.0,1.0,0.0,1.0,0.0,0.0,0.0,0.0,1.0,0.0,1.0,16.5270004272461,230.114242553711,19.3964996337891,13.6070003509521,3263.52978515625,68.2311248779297,1406.81921386719,346.328002929688,333.163421630859,1149.75500488281,9.65486145019531,344.1875,54.2666664123535,1171.0,74.15555572509766,30.75,-21.146755,55.556545,Rubiaceae,Coffea,15.0,0.0,1,0.010585883899108141,94.46542296616816
Coptosperma graveolens,1.0,0.0,0.0,1.0,0.0,1.0,1.0,0.0,0.0,0.0,0.0,1.0,1.0,1.0,21.4602508544922,97.828498840332,22.816499710083,20.2557506561279,932.529235839844,76.4967498779297,439.496246337891,44.5940017700195,1338.20227050781,1291.43994140625,2.14392518997192,152.777770996094,62.9583320617676,7495.5,47.6875,22.875,-1.05,36.87,Rubiaceae,Coptosperma,3.0,0.0,1,0.2108394541450089,4.742945309051269
Corynanthe pachyceras,1.0,1.0,1.0,1.0,0.0,0.0,0.0,1.0,0.0,0.0,0.0,0.0,0.0,1.0,25.0197505950928,93.5372467041016,26.2075004577637,23.7514991760254,1771.220703125,56.5364990234375,715.742004394531,97.9449996948242,262.681427001953,269.247497558594,0.680470705032349,231.625,51.3125,9365.25,45.25,19.875,5.64161,-0.60416,Rubiaceae,Corynanthe,2.0,0.0,1,0.2235890565977681,4.472490806197991
Coussarea suaveolens,1.0,0.0,0.0,0.0,0.0,0.0,0.0,0.0,0.0,0.0,0.0,1.0,1.0,1.0,24.888499259948752,31.70662593841555,25.3229999542236,24.5118751525879,3099.3868408203152,57.37912559509275,1239.53448486328,131.9446220397945,97.0124664306642,259.38249778747536,2.5255779922008506,385.997619628906,53.39444541931155,6156.0,58.3833332061768,26.6875,9.207222,-79.67041499999999,Rubiaceae,Coussarea,2.0,0.0,1,0.0071599434923753005,139.6659067302571
Crossopteryx febrifuga,1.0,1.0,1.0,1.0,1.0,1.0,1.0,1.0,0.0,0.0,0.0,1.0,1.0,1.0,27.32200050354,198.331253051758,30.169750213623,25.2754993438721,1074.80676269531,100.88175201416,647.197021484375,2.43249988555908,310.925201416016,310.657501220703,0.487067401409149,102.645835876465,61.875,11008.5,28.5,16.6875,10.40538,2.436967,Rubiaceae,Crossopteryx,3.0,1.0,1,0.7409267527694834,1.3496610781863876
Cuviera longiflora,1.0,0.0,0.0,1.0,0.0,0.0,1.0,0.0,0.0,0.0,0.0,1.0,1.0,1.0,22.8552494049072,90.0134963989258,23.9452495574951,21.6240005493164,3370.04443359375,68.5155029296875,1666.82250976562,112.121246337891,772.628784179688,714.070007324219,4.80529689788818,335.354156494141,50.6666679382324,6621.5,70.375,27.25,4.85,9.966667,Rubiaceae,Cuviera,2.0,0.0,1,0.010917046076177515,91.59986987525284
Danais xanthorrhoea,1.0,0.0,0.0,0.0,0.0,0.0,1.0,0.0,0.0,1.0,0.0,1.0,0.0,0.0,21.5890007019043,173.312629699707,23.3197498321533,19.4072494506836,1172.227355957035,68.7229995727539,645.4519958496095,63.1347503662109,1102.18835449219,823.940002441406,5.82120418548584,198.66667175293,59.75,7177.0,64.1875,22.5,-5.133331500000001,37.982635,Rubiaceae,Danais,3.0,0.0,1,0.0033062235344572003,302.4598880196935
Dolichopentas longiflora,1.0,0.0,0.0,1.0,0.0,1.0,1.0,0.0,0.0,0.0,0.0,1.0,1.0,0.0,18.5604991912842,41.7492485046387,19.3787498474121,17.7271251678467,1612.69073486328,41.86325073242185,648.8380126953125,177.340126037598,1668.72021484375,1688.4375,3.33988404273987,280.6875,53.625,4216.75,76.34375,26.15625,-1.583333,29.63956,Rubiaceae,Dolichopentas,15.0,0.0,1,0.26717698975404824,3.7428372889467667
Exostema caribaeum,1.0,1.0,0.0,1.0,1.0,1.0,0.0,0.0,0.0,0.0,0.0,1.0,0.0,1.0,25.7917499542236,148.865005493164,27.4044990539551,23.64124965667725,1150.20178222656,76.08574676513669,537.3284912109375,55.3110008239746,105.64820098877,95.3600006103516,1.4240049123764,262.333343505859,67.0666656494141,722.75,58.5625,26.5,18.34455,-89.32083,Rubiaceae,Exostema,3.0,1.0,1,0.1970063864972899,5.075977575040474
Fadogia cienkowskii,1.0,0.0,0.0,1.0,0.0,1.0,1.0,1.0,0.0,0.0,0.0,0.0,1.0,0.0,24.3490009307861,158.418746948242,25.8027496337891,23.2334995269775,1170.50219726562,90.7577514648438,689.961975097656,6.46124982833862,626.401672363281,621.510009765625,1.20586717128754,127.0625,58.5,8023.5,36.375,17.9375,7.5,11.68333,Rubiaceae,Fadogia,3.0,1.0,1,0.21533176264316295,4.643996722662555
Faramea occidentalis,1.0,1.0,0.0,1.0,1.0,0.0,0.0,1.0,0.0,0.0,0.0,1.0,1.0,1.0,24.5827503204346,97.2072525024414,25.9202499389648,22.7220001220703,2432.33349609375,59.4902496337891,1059.22497558594,170.580001831055,237.401657104492,249.595001220703,2.26567935943604,310.645843505859,55.125,1912.75,59.625,26.1875,10.79722,-83.55417,Rubiaceae,Faramea,2.0,0.0,1,0.04884199916326081,20.474182407181335
Feretia apodanthera,1.0,0.0,0.0,1.0,1.0,1.0,1.0,1.0,0.0,0.0,0.0,1.0,1.0,1.0,28.3057498931885,229.956253051758,31.68912506103515,25.4242496490479,938.406494140625,111.157501220703,578.9551391601565,1.49500000476837,283.645416259766,282.458740234375,0.41144385933876,82.1666641235352,63.09375,12047.25,28.3125,16.75,11.3,2.1374225,Rubiaceae,Feretia,3.0,1.0,1,0.9761434283506943,1.0244396171263623
Gardenia saxatilis,1.0,0.0,0.0,0.0,0.0,0.0,1.0,0.0,0.0,0.0,0.0,1.0,0.0,0.0,26.8912506103516,181.494506835938,28.7894992828369,24.29075050354,1291.66149902344,77.3372497558594,628.058776855469,24.6162490844727,181.171737670898,166.225006103516,0.374763906002045,127.0,60.5625,13249.5,40.75,20.875,15.21667,102.4347,Rubiaceae,Gardenia,3.0,0.0,1,0.013815647266185763,72.38169741402793
Gardenia sokotensis,1.0,0.0,0.0,1.0,0.0,1.0,1.0,0.0,0.0,0.0,0.0,1.0,0.0,0.0,28.10262489318849,224.668251037598,31.428750038147,25.4042501449585,977.029479980469,110.563247680664,626.511505126953,1.6038749814033548,298.113571166992,301.1987457275389,0.4923611134290695,91.875,62.4791660308838,10378.125,28.6875,16.875,11.38782,0.0833335,Rubiaceae,Gardenia,3.0,1.0,1,0.11766701161836336,8.498558655023562
Gardenia ternifolia,1.0,1.0,1.0,1.0,0.0,1.0,1.0,0.0,0.0,0.0,0.0,1.0,0.0,0.0,27.1590003967285,184.499496459961,29.2882499694824,25.1224994659424,1088.25830078125,97.9042510986328,621.265991210938,4.22949981689453,309.531860351562,312.054992675781,0.496825456619263,98.4166641235352,61.4583320617676,10956.25,29.25,16.6875,10.03423,2.133,Rubiaceae,Gardenia,3.0,1.0,1,0.19662994751371296,5.085695300459052
Gardenia thunbergia,1.0,1.0,1.0,1.0,1.0,1.0,1.0,0.0,0.0,0.0,0.0,1.0,0.0,0.0,18.2625007629395,248.214004516602,21.2602500915527,15.3109998703003,705.29248046875,29.8075008392334,252.219497680664,109.888999938965,173.227142333984,212.820007324219,2.03738617897034,209.95832824707,63.0416679382324,1918.0,48.75,19.0625,-33.375,26.375,Rubiaceae,Gardenia,6.0,1.0,1,0.226376319091012,4.417423182846089
Gardenia urvillei,0.0,0.0,0.0,1.0,1.0,0.0,1.0,0.0,0.0,0.0,0.0,1.0,0.0,0.0,23.6412506103516,206.692245483398,26.0965003967285,21.0375003814697,1464.16296386719,53.6867485046387,695.233764648438,160.260498046875,60.1301956176758,74.9649963378906,2.03309440612793,247.89582824707,53.238094329834,2011.5,60.75,22.125,-20.9022,164.9188,Rubiaceae,Gardenia,1.0,1.0,1,0.007638020206256948,130.92397938157004
Guettarda speciosa,1.0,1.0,1.0,1.0,1.0,1.0,1.0,1.0,0.0,0.0,0.0,1.0,0.0,1.0,26.482250213623,132.557495117188,27.554249763488748,24.5555000305176,1649.621337890625,77.33262634277345,814.703979492188,94.3862533569336,15.5512466430664,15.0475001335144,0.439283087849617,186.888885498047,57.3333320617676,3187.75,50.2000007629395,22.25,-11.570875,132.1775,Rubiaceae,Guettarda,3.0,0.0,1,0.6706049998371056,1.4911907907678985
Heinsia crinita,1.0,0.0,1.0,1.0,1.0,0.0,1.0,1.0,0.0,0.0,0.0,1.0,1.0,1.0,24.8582496643066,79.8864974975586,25.8787498474121,23.6472492218018,2103.13818359375,63.1699981689453,857.600219726562,94.8847503662109,242.407196044922,243.047500610352,0.75856602191925,200.5625,49.7604160308838,7952.75,48.59375,21.375,0.616667,10.41319,Rubiaceae,Heinsia,3.0,0.0,1,0.7715381054296987,1.296112263234312
Hintonia latiflora,1.0,1.0,0.0,1.0,1.0,1.0,0.0,1.0,0.0,0.0,0.0,1.0,1.0,1.0,24.0097503662109,176.544494628906,26.9039993286133,19.5687503814697,871.421997070312,104.856246948242,566.603271484375,18.7929992675781,470.105255126953,524.784973144531,3.60030460357666,205.958335876465,67.0,343.25,43.5,25.625,19.01083,-101.658,Rubiaceae,Hintonia,3.0,1.0,1,0.8583557762104286,1.1650180819134452
Hymenodictyon floribundum,1.0,0.0,0.0,1.0,0.0,0.0,1.0,1.0,0.0,0.0,0.0,1.0,0.0,1.0,21.4815006256104,115.60050201416,23.2192497253418,20.2417507171631,1386.36877441406,77.0270004272461,701.549011230469,27.4347496032715,1146.53466796875,1215.59252929688,2.21622681617737,169.875,55.1666679382324,6635.0,50.8125,20.8125,-2.166667,28.6,Rubiaceae,Hymenodictyon,3.0,0.0,1,0.19056853474758748,5.247455994372437
Hymenodictyon orixense,1.0,1.0,1.0,1.0,1.0,0.0,1.0,0.0,0.0,0.0,0.0,1.0,0.0,1.0,24.9322490692139,215.358993530273,28.017749786377,22.300500869751,1868.95080566406,79.2645034790039,936.755737304688,51.5662498474121,348.229919433594,390.867492675781,2.30434989929199,201.10417175293,57.3958320617676,6616.75,51.125,24.1875,16.86667,100.6292,Rubiaceae,Hymenodictyon,3.0,0.0,1,0.09753080776072011,10.253170490019702
Isertia hypoleuca,1.0,1.0,0.0,1.0,0.0,1.0,0.0,1.0,0.0,0.0,0.0,1.0,0.0,1.0,25.3862495422363,54.2927513122559,26.0917491912842,24.7145004272461,2393.63208007812,48.2125015258789,1014.67822265625,273.996765136719,155.326873779297,171.5,0.563742637634277,190.39582824707,45.125,2192.5,48.625,22.4375,-3.259722,-61.96472,Rubiaceae,Isertia,1.0,0.0,1,0.23843405259980976,4.194031805005682
Keetia hispida,1.0,0.0,0.0,1.0,0.0,1.0,1.0,0.0,0.0,1.0,0.0,1.0,0.0,0.0,24.03199958801265,88.1969985961914,25.1300001144409,22.93612575531005,1817.674011230465,61.1121253967285,706.025268554687,116.111125946045,369.681427001953,464.24250793457,1.38388192653656,257.2485122680665,50.5833320617676,8465.75,49.28125,21.875,4.75,9.7,Rubiaceae,Keetia,2.0,1.0,1,0.18512126652191388,5.401864511777334
Keetia leucantha,1.0,0.0,0.0,1.0,0.0,1.0,1.0,0.0,0.0,1.0,0.0,1.0,0.0,0.0,26.11049938201905,106.8655014038085,27.7457504272461,24.7388744354248,1314.17938232422,62.0412483215332,610.9342346191405,83.92337417602539,131.512466430664,131.904998779297,0.6822203099727631,181.14582824707,58.8854160308838,12680.125,40.70000076293945,17.84375,6.5203835,-3.1416665,Rubiaceae,Keetia,3.0,0.0,1,0.2964879821033181,3.3728179904827535
Keetia multiflora,1.0,0.0,0.0,1.0,0.0,0.0,1.0,1.0,0.0,1.0,0.0,1.0,0.0,0.0,26.7137498855591,129.595245361328,28.4685001373291,24.9300003051758,1130.41430664062,65.5865020751953,549.8167419433595,45.1517486572266,174.11357116699202,155.662506103516,0.6536982357501986,136.71875,61.5833320617676,11775.25,33.84375,16.96875,7.204812,1.7608055,Rubiaceae,Keetia,3.0,1.0,1,0.2649724983100595,3.7739765688054265
Keetia venosa,1.0,0.0,1.0,1.0,0.0,0.0,1.0,0.0,0.0,1.0,0.0,1.0,0.0,0.0,26.257999420166,139.794494628906,28.0982494354248,24.4675006866455,1162.46044921875,75.8922500610352,627.879516601562,32.077751159668,353.465362548828,367.559997558594,0.754463016986847,149.75,60.2888870239258,9753.25,35.75,17.3125,6.96425,2.632195,Rubiaceae,Keetia,3.0,0.0,1,0.07795490581991306,12.827929037720121
Ladenbergia oblongifolia,1.0,1.0,0.0,1.0,1.0,1.0,0.0,1.0,0.0,0.0,0.0,0.0,0.0,1.0,19.05299949646,52.3235015869141,19.7977504730225,18.6315002441406,2450.64233398438,40.2632484436035,910.400512695312,297.626007080078,1366.07202148438,1405.46252441406,6.86466598510742,367.541656494141,52.3125,1536.75,83.5,27.3125,-1.35745,-75.36833,Rubiaceae,Ladenbergia,1.0,0.0,1,0.1813156279553248,5.515244390551898
Macrocnemum roseum,1.0,1.0,0.0,1.0,1.0,1.0,0.0,1.0,0.0,0.0,0.0,1.0,0.0,1.0,24.2845001220703,50.0007514953613,24.94375038146969,23.17024993896485,2905.43676757812,52.31062507629395,1083.47277832031,216.8649978637695,342.64404296875,384.192504882812,3.4877610206604,344.520843505859,53.0416679382324,2427.75,60.6923065185547,26.4375,3.5344515000000003,-77.12064,Rubiaceae,Macrocnemum,1.0,0.0,1,0.7477050063058844,1.3374258451746974
Massularia acuminata,1.0,1.0,1.0,1.0,1.0,0.0,0.0,1.0,0.0,0.0,0.0,1.0,1.0,1.0,24.5927495956421,78.2142486572266,25.679500579834,23.492000579834,2232.49157714844,59.0542488098145,990.6031494140624,124.02449798584,276.1329498291015,313.1587524414065,0.8004542887210846,209.60417175293,49.6458320617676,7664.25,50.0,22.0625,2.7833315,10.242855,Rubiaceae,Massularia,2.0,1.0,1,0.9208510024572454,1.0859520132264062
Mitracarpus hirtus,1.0,1.0,1.0,1.0,1.0,1.0,1.0,1.0,0.0,0.0,0.0,0.0,1.0,0.0,25.6022491455078,191.908493041992,27.3722496032715,23.5345001220703,1153.14770507812,89.8927536010742,604.693725585938,28.7970008850098,316.443206787109,323.929992675781,0.71595823764801,149.727279663086,59.8125,5627.875,37.9375,18.9375,9.809539,-0.45,Rubiaceae,Mitracarpus,3.0,0.0,1,0.38328482116393153,2.609025833486629
Mitragyna inermis,1.0,0.0,1.0,1.0,1.0,1.0,1.0,1.0,0.0,0.0,0.0,0.0,0.0,1.0,26.9729995727539,158.275253295898,29.0212497711182,25.1277503967285,1072.44995117188,88.6487503051758,535.324768066406,12.9940004348755,183.684204101562,184.160003662109,0.41144385933876,112.416664123535,62.2888870239258,12596.0,31.4375,18.25,9.249324,2.11919,Rubiaceae,Mitragyna,3.0,1.0,1,0.987217725444426,1.0129477765908423
Mitragyna ledermannii,1.0,1.0,1.0,1.0,1.0,1.0,1.0,1.0,0.0,0.0,0.0,0.0,0.0,1.0,25.0839996337891,90.4670028686523,26.1725006103516,24.0732498168945,1910.0712890625,62.9677505493164,808.805725097656,95.5592498779297,115.867034912109,167.809997558594,0.689148247241974,188.16667175293,50.125,9768.5,46.0,20.5,5.133333,2.71111,Rubiaceae,Mitragyna,3.0,0.0,1,0.9736435664123968,1.0270698995985967
Mitragyna rubrostipulata,1.0,1.0,0.0,1.0,1.0,1.0,1.0,1.0,0.0,0.0,0.0,0.0,0.0,1.0,19.1720008850098,73.2099990844727,20.2940006256104,18.7482490539551,1488.29675292969,52.9589996337891,584.558471679688,98.4919967651367,1545.966796875,1467.16247558594,3.22835683822632,251.27082824707,54.8125,4531.5,68.5625,24.625,-2.233333,30.66667,Rubiaceae,Mitragyna,3.0,0.0,1,0.9351596092099741,1.0693361755057014
Morinda asteroscepa,1.0,0.0,0.0,0.0,1.0,0.0,1.0,0.0,0.0,0.0,0.0,1.0,1.0,1.0,22.0795001983643,184.255004882812,24.324499130249,19.6437492370605,1488.29675292969,60.5675010681152,711.539245605469,184.190994262695,697.108032226562,662.424987792969,4.83485078811646,200.5625,59.0208320617676,7177.0,65.125,22.5,-5.15,38.5,Rubiaceae,Morinda,3.0,0.0,1,0.018605612952342743,53.74722147351152
Morinda chrysorhiza,1.0,0.0,1.0,1.0,1.0,1.0,1.0,1.0,0.0,0.0,0.0,1.0,1.0,1.0,25.611249923706048,102.644752502441,26.671125411987298,24.21162509918215,1979.56884765625,72.1897506713867,1031.92309570312,63.5555000305176,189.297790527344,180.14375305175798,0.6082595288753505,229.90625,52.625,10298.375,49.1333351135254,22.03125,8.3344165,-9.7430835,Rubiaceae,Morinda,2.0,0.0,1,0.85681313700938,1.1671156251063088
Morinda citrifolia,1.0,1.0,1.0,1.0,1.0,1.0,1.0,1.0,0.0,0.0,0.0,1.0,1.0,1.0,25.8757495880127,105.101249694824,26.9409999847412,24.4664993286133,1834.875,49.1637496948242,817.557983398438,160.260498046875,30.9141273498535,35.6425018310547,0.788247525691986,303.022216796875,57.3763885498047,2934.25,60.7999992370605,26.8125,12.03534,-61.29696,Rubiaceae,Morinda,3.0,0.0,1,0.774921750599213,1.2904528737601493
Morinda lucida,1.0,1.0,1.0,1.0,1.0,1.0,1.0,1.0,0.0,0.0,0.0,1.0,1.0,1.0,26.7455005645752,119.51000213623,28.3425006866455,25.066625595092752,1148.81274414062,63.0437507629395,469.810760498047,51.2312507629395,53.9695281982422,80.6524963378906,0.5697629749774931,157.70832824707,60.33263969421385,14089.5,38.625,17.8125,6.9134105,2.239271,Rubiaceae,Morinda,3.0,1.0,1,0.9357669843506623,1.0686421050577133
Morinda morindoides,1.0,0.0,0.0,1.0,1.0,1.0,1.0,0.0,0.0,0.0,0.0,1.0,1.0,1.0,25.0532493591309,84.5879974365234,26.1077499389648,24.1254997253418,1717.98278808594,59.4547500610352,678.146728515625,94.7399978637695,266.706359863281,276.790008544922,0.626308739185333,192.91667175293,51.1458320617676,7788.75,43.875,19.125,3.133333,10.13528,Rubiaceae,Morinda,3.0,1.0,1,0.4615392612527906,2.1666629124586825
Nauclea diderrichii,1.0,1.0,1.0,1.0,1.0,1.0,1.0,1.0,0.0,0.0,0.0,0.0,0.0,1.0,25.13450050354,102.606750488281,26.3072490692139,24.1364994049072,1700.30249023438,63.976001739502,676.903015136719,60.5752487182617,177.623275756836,207.080001831055,0.681922554969788,185.64582824707,52.3958320617676,9539.0,45.5,20.25,5.86667,2.436271,Rubiaceae,Nauclea,3.0,0.0,1,0.9782949553248715,1.0221866059484286
Nauclea latifolia,1.0,1.0,1.0,1.0,1.0,1.0,1.0,1.0,0.0,0.0,0.0,0.0,0.0,1.0,26.818000793457,153.598495483398,28.8742504119873,25.0755004882812,1148.81274414062,86.8257522583008,638.549255371094,13.1327495574951,294.329650878906,292.390014648438,0.524293124675751,118.476188659668,61.2291679382324,10861.5,31.0666675567627,16.8125,8.866667,2.14944,Rubiaceae,Nauclea,3.0,1.0,1,0.9792163013774199,1.0212248290733565
Nauclea officinalis,1.0,1.0,0.0,1.0,1.0,1.0,1.0,1.0,0.0,0.0,0.0,0.0,0.0,1.0,25.89750003814695,35.598625183105455,26.4783754348755,25.41237449646,2532.57397460938,24.7333745956421,956.9414978027344,500.4169921875,126.130195617676,160.7374954223635,3.10753583908081,272.53125,51.78125,1417.5,56.6666660308838,24.3125,4.4025,109.725,Rubiaceae,Nauclea,1.0,0.0,1,0.7918514730202906,1.262863092475899
Nauclea pobeguinii,1.0,0.0,0.0,1.0,0.0,1.0,1.0,1.0,0.0,0.0,0.0,0.0,0.0,1.0,24.84512519836425,102.35612487793,25.955250740051248,23.6378746032715,1796.0399780273451,68.5534973144531,843.726379394531,63.5555000305176,418.6883697509765,408.432495117188,0.6707815527915955,199.453872680664,51.3229160308838,8374.5,49.5,21.84375,3.2185705,9.58,Rubiaceae,Nauclea,3.0,1.0,1,0.9171823219780805,1.0902957634893216
Notopleura camponutans,1.0,0.0,0.0,0.0,0.0,0.0,0.0,1.0,0.0,0.0,0.0,1.0,1.0,0.0,23.9734992980957,57.2542495727539,24.4139995574951,23.000374794006348,3633.6973876953098,45.09362411499025,1338.165222167965,330.442749023438,372.537384033203,469.462493896484,4.41926860809326,429.70832824707054,52.9220771789551,4255.0,67.125,27.5625,9.3729165,-81.65625,Rubiaceae,Notopleura,2.0,0.0,1,0.02270409642568253,44.04491512240122
Oldenlandia affinis,1.0,0.0,1.0,1.0,0.0,0.0,1.0,1.0,0.0,0.0,0.0,0.0,1.0,0.0,26.1334991455078,116.022499084473,27.4634990692139,24.6110000610352,1251.31604003906,74.9045028686523,590.970764160156,54.3847503662109,30.4681434631348,35.9275016784668,0.349170237779617,155.794876098633,56.261905670166,11083.0,45.5,19.5625,5.05167,5.883333,Rubiaceae,Oldenlandia,3.0,1.0,1,0.05678591264071418,17.61000138057169
Oldenlandia corymbosa,1.0,1.0,1.0,1.0,1.0,0.0,1.0,1.0,0.0,0.0,0.0,0.0,1.0,0.0,24.0925006866455,272.118255615234,27.5957508087158,20.0462493896484,1717.11096191406,75.1352462768555,797.487731933594,87.3270034790039,63.5734062194824,68.995002746582,0.511240780353546,191.0,58.4375,2953.25,45.75,23.1875,18.42465,8.783333,Rubiaceae,Oldenlandia,3.0,0.0,1,0.05298867056717221,18.871958652601577
Oxyanthus speciosus,1.0,0.0,1.0,1.0,0.0,1.0,1.0,1.0,0.0,0.0,0.0,1.0,1.0,1.0,23.4689998626709,102.644752502441,24.8628749847412,22.6364994049072,1613.32250976562,62.7587509155273,619.645751953125,63.5555000305176,523.6593017578125,617.342529296875,1.972862899303435,231.59375,53.6666679382324,8140.75,55.0,23.15625,5.175,6.511457500000001,Rubiaceae,Oxyanthus,3.0,0.0,1,0.673194451114547,1.4854549058513342
Pagamea guianensis,1.0,0.0,0.0,0.0,0.0,0.0,0.0,0.0,0.0,0.0,0.0,1.0,0.0,1.0,25.5677509307861,60.1212501525879,26.3754997253418,24.8589992523193,2378.85766601562,49.8419990539551,965.106018066406,252.25,90.1412734985352,91.3724975585938,0.374284952878952,198.20832824707,47.1904754638672,2646.25,49.7333335876465,21.125,-1.399671,-59.9,Rubiaceae,Pagamea,1.0,0.0,1,0.0026251983366565052,380.92359957595284
Palicourea apoda,1.0,0.0,0.0,0.0,0.0,0.0,0.0,1.0,0.0,0.0,0.0,1.0,1.0,1.0,25.4365005493164,60.4199981689453,26.2310009002686,24.7062492370605,2461.13793945312,46.2627487182617,1022.02001953125,291.957244873047,144.71467590332,141.957504272461,0.955862879753113,234.04167175293,46.9583320617676,2831.0,51.6875,23.0,4.93,-58.65,Rubiaceae,Palicourea,1.0,1.0,1,0.009177832432676102,108.95818891175993
Palicourea colorata,1.0,0.0,1.0,1.0,0.0,0.0,0.0,1.0,0.0,0.0,0.0,1.0,1.0,1.0,25.2287502288818,75.9530029296875,26.2129993438721,24.1082496643066,2055.57250976562,58.8125,938.414978027344,144.675003051758,244.199447631836,242.637496948242,1.19955790042877,185.90625,50.875,2862.0,49.9285697937012,21.25,-3.6225,-51.8175,Rubiaceae,Palicourea,1.0,1.0,1,0.04960081007649251,20.16096104998764
Palicourea deflexa,1.0,1.0,0.0,1.0,0.0,0.0,0.0,1.0,0.0,0.0,0.0,1.0,1.0,1.0,24.2465000152588,86.7344970703125,25.5799999237061,22.5087509155273,2430.68920898438,53.5307502746582,1020.47052001953,206.216995239258,279.168975830078,282.592498779297,2.06523656845093,274.17707824707054,52.9487190246582,2293.25,57.375,24.4375,3.35,-71.96167,Rubiaceae,Palicourea,1.0,0.0,1,0.019803465085011605,50.49621345089033
Palicourea tomentosa,1.0,1.0,1.0,1.0,1.0,0.0,0.0,1.0,0.0,0.0,0.0,1.0,1.0,1.0,24.7287502288818,63.5074996948242,25.6865005493164,23.5782508850098,2753.26318359375,49.1047515869141,1102.07080078125,253.32275390625,247.961212158203,249.595001220703,1.61077463626862,321.166656494141,52.0208320617676,2170.75,59.3076934814453,25.8125,5.5944,-76.63415,Rubiaceae,Palicourea,1.0,0.0,1,0.09857658836709346,10.144396520156068
Pavetta corymbosa,1.0,0.0,0.0,1.0,0.0,1.0,1.0,1.0,0.0,0.0,0.0,1.0,0.0,1.0,26.607250213623,119.51000213623,28.1539993286133,24.9885005950928,1160.0849609375,67.4042510986328,539.5960998535155,52.5046253204346,93.5207748413086,80.6524963378906,0.524293124675751,161.39582824707,59.8958320617676,13284.75,36.6875,17.3125,6.92323,2.1361635,Rubiaceae,Pavetta,3.0,1.0,1,0.584997992959893,1.7094075741018129
Pavetta crassipes,1.0,0.0,1.0,1.0,0.0,1.0,1.0,1.0,0.0,0.0,0.0,1.0,0.0,1.0,26.8612499237061,164.88200378418,29.0212497711182,24.9664993286133,1146.45751953125,93.1620025634766,646.473754882812,10.0372495651245,323.656524658203,317.102508544922,0.496825456619263,104.3125,61.1458320617676,10242.0,28.625,16.375,9.353977,2.213651,Rubiaceae,Pavetta,3.0,1.0,1,0.663434213431832,1.507308456142427
Pentagonia gymnopoda,1.0,0.0,0.0,0.0,0.0,0.0,0.0,1.0,0.0,0.0,0.0,1.0,0.0,1.0,23.9734992980957,32.9252510070801,24.4139995574951,23.5782508850098,3271.36474609375,60.1077499389648,1262.42980957031,109.385246276855,351.412750244141,469.462493896484,4.41926860809326,399.083343505859,53.4791679382324,4255.0,57.0625,27.5625,9.191667,-78.92806,Rubiaceae,Pentagonia,2.0,0.0,1,0.11323478350438897,8.831208653843014
Pentagonia macrophylla,1.0,0.0,0.0,0.0,1.0,0.0,0.0,1.0,0.0,0.0,0.0,1.0,0.0,1.0,24.70850086212155,39.3842487335205,25.3334999084473,23.92674922943115,3351.58032226562,39.0357513427734,1282.553833007815,397.170883178711,243.725769042969,247.282501220703,1.62456357479095,367.416656494141,51.8958320617676,3791.75,59.125,26.1875,5.944,-78.998085,Rubiaceae,Pentagonia,1.0,0.0,1,0.09746122677779138,10.260490587502755
Pentagonia nuciformis,1.0,0.0,0.0,0.0,0.0,0.0,0.0,1.0,0.0,0.0,0.0,1.0,0.0,1.0,21.5445003509521,58.56387519836425,22.1529998779297,21.04475021362305,4155.419921875,53.7189998626709,1641.92126464844,316.761505126953,891.6953125,831.575012207031,7.69307422637939,450.555541992188,52.96875,2907.25,67.5,28.0625,8.881477499999999,-82.45833,Rubiaceae,Pentagonia,1.0,0.0,1,0.055805928630057705,17.919243072346056
Pentas lanceolata,1.0,1.0,0.0,1.0,1.0,1.0,1.0,1.0,0.0,0.0,0.0,1.0,1.0,0.0,21.0282497406006,84.2850036621094,21.8474998474121,20.1162490844727,1437.84973144531,61.5009994506836,625.400756835938,138.797500610352,1301.54565429688,1285.12255859375,3.12659382820129,269.3125,56.3777770996094,3812.0,65.1999969482422,26.9375,2.666667,30.75,Rubiaceae,Pentas,3.0,0.0,1,0.7081126481589012,1.4122046860764432
Pentas micrantha,1.0,0.0,0.0,1.0,0.0,0.0,1.0,0.0,0.0,0.0,0.0,1.0,1.0,0.0,24.3347492218018,119.028747558594,26.0722503662109,22.1429996490479,1252.08325195312,55.0525016784668,511.815002441406,128.285247802734,410.975067138672,300.737487792969,1.48974776268005,174.89582824707,55.2916679382324,7236.25,52.5999984741211,20.75,-5.083333,38.72777,Rubiaceae,Pentas,3.0,1.0,1,0.026243099110779183,38.10525562467797
Pittoniotis trichantha,1.0,0.0,0.0,0.0,0.0,0.0,0.0,0.0,0.0,0.0,0.0,1.0,1.0,1.0,25.8541250228882,47.6414985656738,26.4169998168945,25.3112506866455,2538.2493896484348,55.4638748168945,1018.73748779297,116.81649780273447,153.4958419799805,139.892501831055,1.80965971946716,308.09375,56.6354179382324,6046.5,56.1666679382324,26.125,9.20513,-77.14249,Rubiaceae,Pittoniotis,2.0,0.0,1,0.10740953964020071,9.310160003941819
Plocama calabrica,1.0,0.0,0.0,0.0,1.0,0.0,0.0,0.0,0.0,0.0,0.0,0.0,1.0,0.0,15.1757497787476,560.083251953125,22.9852504730225,8.50125026702881,771.10498046875,68.9017486572266,397.465759277344,25.6905002593994,683.240966796875,721.825012207031,5.23666524887085,223.83332824707,69.7777786254883,1188.5,48.4444427490234,23.375,36.8258,-3.531575,Rubiaceae,Plocama,8.0,1.0,1,0.0016545737488456581,604.3852688329349
Pogonopus speciosus,1.0,0.0,0.0,1.0,1.0,1.0,0.0,1.0,0.0,0.0,0.0,1.0,0.0,1.0,24.4267501831055,62.1790008544922,25.081750869751,23.5375003814697,2094.720703125,57.5885009765625,820.043273925781,104.15975189209,258.900268554688,398.929992675781,6.61134147644043,312.854156494141,56.0,2962.66674804688,62.2857131958008,25.9375,10.23333,-74.08333,Rubiaceae,Pogonopus,3.0,1.0,1,0.9988128866420289,1.0011885242710095
Pogonopus tubulosus,1.0,1.0,1.0,1.0,0.0,1.0,0.0,1.0,0.0,0.0,0.0,1.0,0.0,1.0,21.2857494354248,200.2428741455075,23.661124229431152,17.8268747329712,1387.451354980465,62.9040012359619,647.9366149902345,93.2669982910156,766.5318603515625,781.507507324219,3.9988096952438346,187.989585876465,55.6979179382324,1764.75,56.5,22.8125,-18.05988,-63.93111,Rubiaceae,Pogonopus,3.0,1.0,1,0.9977487187183477,1.0022563609849022
Posoqueria latifolia,1.0,1.0,0.0,1.0,1.0,0.0,0.0,1.0,0.0,0.0,0.0,1.0,0.0,1.0,24.6420001983643,76.2257537841797,25.7387504577637,23.4172496795654,2469.47314453125,52.6357498168945,1035.99328613281,230.192245483398,212.880889892578,223.550003051758,1.67321836948395,300.395843505859,52.2395839691162,2516.5,58.0625,24.9375,3.8,-73.42138,Rubiaceae,Posoqueria,1.0,0.0,1,0.08340396410780145,11.98983778166081
Prismatomeris fragrans,1.0,0.0,0.0,0.0,1.0,0.0,0.0,0.0,0.0,0.0,0.0,1.0,1.0,1.0,27.2397499084473,189.45100402832,28.5342502593994,24.3937492370605,1572.73022460938,74.7792510986328,746.692749023438,53.9490013122559,99.8421020507812,155.455001831055,3.17299318313599,154.866668701172,58.4000015258789,10396.5,52.2857131958008,20.6875,14.66667,102.0333,Rubiaceae,Prismatomeris,3.0,0.0,1,0.09914357677046469,10.086382119491017
Prismatomeris sessiliflora,1.0,0.0,0.0,0.0,0.0,0.0,0.0,0.0,0.0,0.0,0.0,1.0,1.0,1.0,26.6736249923706,138.0615005493165,28.6788749694824,24.2686252593994,1746.24627685547,75.15999984741211,841.988006591797,27.5575008392334,227.547088623047,212.7187461853025,1.3483063280582446,174.55207824707,57.125,6861.25,55.78125,23.0625,12.8033,105.317,Rubiaceae,Prismatomeris,3.0,0.0,1,0.03979777096029149,25.127035406022042
Psychotria chagrensis,1.0,0.0,0.0,0.0,0.0,0.0,1.0,0.0,0.0,0.0,0.0,1.0,1.0,1.0,24.7765007019043,54.1699981689453,25.59287548065185,23.9185009002686,3347.4141845703098,52.9740009307861,1308.47424316406,224.116500854492,163.563705444336,201.482498168945,2.306927561759945,390.666656494141,53.7708320617676,3848.0,60.5999984741211,27.0,9.497222,-83.495,Rubiaceae,Psychotria,2.0,0.0,1,0.003140505532077498,318.4200727513073
Psychotria marginata,1.0,0.0,1.0,1.0,0.0,0.0,1.0,0.0,0.0,0.0,0.0,1.0,1.0,1.0,24.4806251525879,63.1000003814697,25.7807502746582,23.254875183105497,2827.74145507813,55.1757507324219,1169.53839111328,189.759002685547,244.43074798584,249.5162506103515,2.37178230285645,354.791656494141,53.8958320617676,2499.0,61.25,26.9375,9.582361,-83.19749,Rubiaceae,Psychotria,2.0,0.0,1,0.009227854809634648,108.36754810618788
Psychotria orosiana,1.0,0.0,0.0,0.0,0.0,0.0,1.0,0.0,0.0,0.0,0.0,1.0,1.0,1.0,20.3377494812012,63.4580001831055,21.2632503509521,19.650749206543,3659.40844726562,47.9422492980957,1463.7802734375,316.761505126953,1237.79504394531,1114.2099609375,7.62072038650513,542.244445800781,53.7083320617676,3194.25,86.0,30.5,10.05975,-83.98472,Rubiaceae,Psychotria,1.0,0.0,1,0.0017735700887201555,563.8344976383879
Psydrax acutiflorus,1.0,0.0,1.0,1.0,0.0,1.0,1.0,1.0,0.0,0.0,0.0,1.0,0.0,1.0,24.4232501983643,84.6679992675781,25.3537502288818,22.9092502593994,2140.4111328125,66.129997253418,934.603271484375,111.967002868652,381.083099365234,428.747497558594,1.6166079044342,213.54167175293,50.7037048339844,8183.5,52.5625,22.375,1.60726,10.2,Rubiaceae,Psydrax,3.0,1.0,1,0.6674531458718458,1.4982325069331606
Psydrax palma,1.0,0.0,0.0,0.0,0.0,0.0,1.0,0.0,0.0,0.0,0.0,1.0,0.0,1.0,24.3435001373291,75.6719970703125,25.39674949646,23.4192504882812,1830.74499511719,58.6139984130859,743.568237304688,128.516250610352,419.914123535156,408.432495117188,0.880182564258575,203.54167175293,48.230770111084,5251.5,49.875,22.125,0.405,11.56667,Rubiaceae,Psydrax,3.0,0.0,1,0.005954648854644976,167.93601510523013
Pyrostria major,1.0,0.0,0.0,0.0,0.0,0.0,1.0,0.0,0.0,0.0,0.0,1.0,0.0,0.0,21.9645004272461,196.110748291016,24.679500579834,19.4752502441406,2364.36499023438,65.5315017700195,1111.60021972656,219.977249145508,254.448760986328,282.404998779297,2.40837144851685,244.72917175293,52.9555549621582,2508.5,66.5,22.5625,-17.28333,49.00861,Rubiaceae,Pyrostria,1.0,0.0,1,0.0010153444037072049,984.8874887661963
Randia armata,1.0,1.0,0.0,1.0,1.0,1.0,0.0,1.0,0.0,1.0,0.0,1.0,0.0,1.0,24.6420001983643,136.490875244141,26.06187534332275,22.68837451934815,1522.98803710938,59.1022491455078,716.174987792969,111.5403747558595,262.080322265625,265.0250091552735,1.45114016532898,217.452377319336,55.6041679382324,2291.0,50.75,23.09375,-4.098053999999999,-67.652785,Rubiaceae,Randia,3.0,0.0,1,0.49685433470124385,2.0126623240618304
Remijia ferruginea,1.0,1.0,1.0,1.0,1.0,1.0,0.0,1.0,0.0,0.0,0.0,1.0,0.0,1.0,20.81762504577636,180.397125244141,22.75699996948245,18.15837478637695,1443.09545898438,87.0477523803711,810.06298828125,35.4894981384277,987.1454162597656,930.015014648438,2.89369320869446,178.84375,51.4375,2524.5,52.84375,22.125,-18.88722,-43.54875,Rubiaceae,Remijia,11.0,0.0,1,0.4774589548599537,2.094420870781062
Rennellia elliptica,1.0,0.0,0.0,0.0,0.0,0.0,0.0,0.0,0.0,0.0,0.0,1.0,1.0,1.0,25.5454998016357,33.1812515258789,25.9549999237061,25.0632495880127,4179.98583984375,20.0727500915527,1351.09973144531,756.083984375,172.789474487305,180.414993286133,2.94130325317383,318.0,48.6904754638672,1253.0,59.875,25.875,2.666666,113.0833,Rubiaceae,Rennellia,1.0,1.0,1,0.009665394183914294,103.46189518729174
Rhodopentas bussei,1.0,0.0,0.0,1.0,0.0,1.0,1.0,0.0,0.0,0.0,0.0,1.0,1.0,0.0,24.0599994659424,135.453750610352,25.38224983215335,21.97699928283695,1175.64599609375,74.1306228637695,535.460388183594,42.3642501831055,690.0567932128905,662.424987792969,1.734880745410915,157.2828521728515,58.5833320617676,7236.25,47.0,20.9375,-5.1051405,36.91761,Rubiaceae,Rhodopentas,3.0,0.0,1,0.8294896399136917,1.205560566258609
Ronabea latifolia,1.0,0.0,0.0,1.0,0.0,0.0,0.0,0.0,0.0,0.0,0.0,1.0,1.0,0.0,24.6620006561279,58.5289993286133,25.7374992370605,23.7814998626709,2870.64428710938,44.6220016479492,1090.009765625,300.0,191.465377807617,210.0625,1.73742389678955,291.708343505859,50.88194465637205,2717.5,57.09375,24.8125,5.06666,-71.95,Rubiaceae,Ronabea,1.0,0.0,1,0.08485342170773504,11.785028580748941
Rothmannia longiflora,1.0,0.0,0.0,1.0,1.0,0.0,1.0,1.0,0.0,0.0,0.0,1.0,0.0,1.0,26.4677505493164,112.799751281738,27.9190006256104,24.8787498474121,1297.37426757812,65.2057495117188,577.067993164062,56.586498260498,124.365653991699,123.412498474121,0.64978289604187,176.41667175293,58.0,12034.0,41.0,19.0,6.865758,2.19736,Rubiaceae,Rothmannia,3.0,0.0,1,0.35211187090720203,2.8400064940257206
Rubia cordifolia,1.0,1.0,1.0,1.0,1.0,0.0,1.0,1.0,1.0,0.0,0.0,0.0,0.0,0.0,12.5930004119873,776.155517578125,20.00362491607665,2.41899991035461,1156.286254882815,69.7177505493164,540.8033752441405,61.2311248779297,1050.995788574215,1036.99499511719,3.9037306308746302,296.82292175292946,60.033332824707,1973.5,60.5,24.0,32.05453,106.8219,Rubiaceae,Rubia,22.0,1.0,1,0.040043986322876424,24.97253874619165
Rudgea panamensis,1.0,0.0,0.0,0.0,0.0,0.0,0.0,0.0,0.0,0.0,0.0,1.0,1.0,1.0,24.5004997253418,31.6422500610352,24.9422492980957,24.0979995727539,3335.04858398438,58.82949829101565,1392.73498535156,141.493377685547,292.1218872070315,376.385009765625,4.5903091430664045,404.208343505859,52.7291660308838,4384.5,63.2102279663086,27.375,9.37222,-79.407915,Rubiaceae,Rudgea,2.0,0.0,1,0.0048772200223827535,205.03483447758268
Rytigynia obscura,1.0,0.0,0.0,1.0,0.0,1.0,1.0,0.0,0.0,0.0,0.0,1.0,0.0,1.0,17.2597503662109,176.171752929688,19.0949993133545,14.3584995269775,1723.9267578125,90.8867492675781,930.082275390625,39.2987518310547,1578.96118164062,1693.20251464844,7.43445825576782,186.33332824707,53.4444427490234,7153.25,58.1666679382324,22.5625,-9.18,34.45,Rubiaceae,Rytigynia,12.0,0.0,1,0.05579675682367582,17.922188616806444
Sabicea villosa,1.0,1.0,0.0,1.0,1.0,1.0,1.0,1.0,0.0,1.0,0.0,1.0,1.0,0.0,24.669750213623,64.0695037841797,25.3988742828369,23.5403747558594,3052.42407226562,44.8274993896484,1110.06561279297,296.079254150391,225.5817184448245,241.32125091552751,1.62794780731201,327.958343505859,51.25,2348.0,61.125,25.6875,4.6416665,-76.60349500000001,Rubiaceae,Sabicea,1.0,1.0,1,0.22431229770335712,4.458070334255391
Schizocalyx veraguensis,1.0,0.0,0.0,0.0,0.0,0.0,0.0,1.0,0.0,0.0,0.0,1.0,0.0,1.0,23.81962490081785,50.3362503051758,24.412750244140653,23.25312423706055,4369.61181640625,53.30912399291995,1842.3876953125,336.6351318359375,459.396118164062,345.28250122070347,3.69408130645752,406.208343505859,53.2083320617676,4519.75,60.40625,28.75,8.71,-83.58028,Rubiaceae,Schizocalyx,2.0,0.0,1,0.11228228403125078,8.906124493528086
Solenandra mexicana,1.0,1.0,0.0,1.0,0.0,1.0,0.0,1.0,0.0,0.0,0.0,1.0,0.0,1.0,24.7877502441406,171.181747436523,26.6112499237061,22.7180004119873,1410.99877929688,77.5070037841797,708.973022460938,80.8347473144531,280.551239013672,260.167510986328,2.43297958374023,288.958343505859,63.7000007629395,352.25,63.6875,26.8125,17.53333,-89.9125,Rubiaceae,Solenandra,3.0,0.0,1,0.24355553301303345,4.105839796078403
Spermacoce princeae,1.0,0.0,0.0,1.0,0.0,1.0,1.0,0.0,0.0,1.0,0.0,1.0,1.0,0.0,17.9195003509521,86.65987777709965,18.94750022888185,16.82200050354,1622.96435546875,61.6067504882812,654.786102294922,113.723751068115,1661.0747680664049,1704.5375366210951,3.30964684486389,271.5,54.4583320617676,5603.125,73.35625076293945,25.4375,-1.433048,31.57555,Rubiaceae,Spermacoce,15.0,0.0,1,0.033486177997841385,29.863067683163568
Tarenna pavettoides,1.0,0.0,1.0,1.0,0.0,0.0,1.0,0.0,0.0,0.0,0.0,1.0,0.0,1.0,21.5382499694824,121.502998352051,23.3314990997314,19.8307495117188,1303.96130371094,62.5110015869141,537.549255371094,80.5077514648438,1077.90576171875,823.940002441406,2.58193850517273,213.83332824707,57.3333320617676,5171.5,62.8125,22.5,-4.185,30.80565,Rubiaceae,Tarenna,3.0,0.0,1,0.019453526517861346,51.404561485643505
Timonius gammillii,1.0,0.0,0.0,0.0,0.0,0.0,0.0,0.0,0.0,0.0,0.0,1.0,0.0,0.0,,,,,,,,,,,,,,,,,,,Rubiaceae,Timonius,,0.0,1,0.002239701553964863,446.48805919241164
Vangueria agrestis,1.0,1.0,0.0,1.0,1.0,1.0,1.0,1.0,0.0,0.0,0.0,1.0,1.0,1.0,26.9527492523193,162.3534927368165,29.09775066375735,25.04600048065189,1146.412109375,89.8207473754883,629.534484863281,10.9210000038147,305.1759033203125,302.1000061035155,0.5341221988201139,111.0,61.2395839691162,10330.625,29.3125,16.375,9.425902,1.72735,Rubiaceae,Vangueria,3.0,1.0,1,0.6981045990472853,1.4324500961098328
Vangueria madagascariensis,1.0,1.0,0.0,1.0,1.0,1.0,1.0,0.0,0.0,0.0,0.0,1.0,1.0,1.0,22.3787498474121,163.990005493164,24.6687507629395,19.8307495117188,1148.91479492188,81.1669998168945,616.139526367188,44.4177513122559,602.157897949219,550.672485351562,1.7888001203537,166.41667175293,60.3958320617676,5537.75,47.9375,21.6875,-12.76447,36.51472,Rubiaceae,Vangueria,3.0,0.0,1,0.19929245555126346,5.017751410779184
Warszewiczia coccinea,1.0,0.0,0.0,1.0,1.0,0.0,0.0,1.0,0.0,0.0,0.0,1.0,0.0,1.0,24.6790008544922,58.2970008850098,25.3495006561279,23.7497501373291,3231.845703125,40.923999786377,1090.35046386719,328.044250488281,261.011077880859,255.399993896484,1.42111909389496,280.1875,50.2291679382324,2298.25,59.3125,25.0,3.7667,-74.43333,Rubiaceae,Warszewiczia,1.0,0.0,1,0.2922357057718895,3.421895340812906
Wendlandia ligustroides,1.0,0.0,0.0,0.0,0.0,0.0,0.0,0.0,0.0,0.0,0.0,1.0,0.0,1.0,20.6800003051758,989.487487792969,33.538501739502,8.19050025939941,437.506011962891,84.5934982299805,216.992752075195,0.927999973297119,258.634338378906,263.984985351562,0.625062704086304,244.22917175293,73.3125,6981.0,41.1875,24.5625,36.48333,43.11667,Rubiaceae,Wendlandia,8.0,1.0,1,0.00671631608271647,148.89114623020268
Geniostoma borbonicum,1.0,0.0,0.0,1.0,1.0,0.0,0.0,0.0,0.0,0.0,0.0,1.0,0.0,1.0,,,,,,,,,,,,,,,,,,,Loganiaceae,Geniostoma,,0.0,1,0.02342862326159304,42.6828323984072
Strychnos aculeata,1.0,0.0,1.0,1.0,0.0,1.0,1.0,1.0,0.0,1.0,0.0,0.0,0.0,0.0,25.3059997558594,91.7817535400391,26.3902492523193,24.2647495269775,1771.220703125,58.8697509765625,732.900024414062,123.634002685547,133.520782470703,139.330001831055,0.491322726011276,183.16667175293,50.3958320617676,11039.0,40.3125,18.25,5.083333,-3.5,Loganiaceae,Strychnos,3.0,0.0,1,0.9118117237298545,1.0967176380551489
Strychnos angolensis,1.0,0.0,1.0,1.0,0.0,0.0,1.0,1.0,0.0,1.0,0.0,0.0,0.0,0.0,24.34400081634525,93.0695037841797,25.5657501220703,23.0386247634888,1723.34375,68.164249420166,846.377868652344,65.68687438964844,490.5069274902345,495.776245117188,0.766037166118622,187.111114501953,51.10208320617675,6553.25,47.9732151031494,21.53125,-0.8170555,13.4478055,Loganiaceae,Strychnos,3.0,0.0,1,0.4668195701482772,2.1421552650039226
Strychnos brasiliensis,1.0,1.0,0.0,1.0,1.0,1.0,1.0,1.0,0.0,1.0,0.0,0.0,0.0,0.0,19.830625534057653,292.4114990234375,23.48974990844725,15.94775009155275,1839.00622558594,24.3514995574951,597.4662475585935,316.3302612304685,563.9127197265625,575.697509765625,1.678677022457125,272.395843505859,52.3333320617676,1092.25,63.0625,26.0,-25.2956945,-51.55722543964205,Loganiaceae,Strychnos,14.0,0.0,1,0.6984302021884249,1.4317822981690254
Strychnos camptoneura,1.0,0.0,1.0,1.0,1.0,1.0,1.0,1.0,0.0,1.0,0.0,0.0,0.0,0.0,24.7983751296997,86.83975219726565,25.735125541687,23.65787506103515,2160.9295654296848,61.075624465942354,868.4801025390625,113.8241233825685,176.2617721557615,245.287506103516,0.630709111690521,210.84375,50.6666679382324,8849.0,46.0,20.75,5.031665,8.8755555,Loganiaceae,Strychnos,2.0,0.0,1,0.9379035831561647,1.0662076763102588
Strychnos cocculoides,1.0,1.0,1.0,1.0,0.0,0.0,1.0,0.0,0.0,1.0,0.0,0.0,0.0,0.0,21.294750213623,248.664505004883,23.9764995574951,18.058500289917,679.427001953125,93.0565032958984,393.629760742188,6.47450017929077,1162.12463378906,1149.69494628906,0.965167641639709,98.7916641235352,61.3333320617676,3166.5,33.4375,15.375,-16.36667,27.616667,Loganiaceae,Strychnos,6.0,0.0,1,0.06270412474788936,15.94791417662935
